,Neighbourhood,Neighbourhood Latitude,Neighbourhood Longitude,Venue Name,Venue ID,Venue Latitude,Venue Longitude,Venue Category
0,"Rouge, Malvern",43.811525000000074,-79.19551746399998,BeaverTails,4c546bef1b46c9b689e291ce,43.823376,-79.184616,Dessert Shop
3,"Rouge, Malvern",43.811525000000074,-79.19551746399998,Peacock Café (Toronto Zoo),4c82860fd8086dcb735c7752,43.82001212937283,-79.18156317091477,Café
4,"Rouge, Malvern",43.811525000000074,-79.19551746399998,Tim Hortons / Esso,4e0b137722713e13018e7117,43.80186301779314,-79.1992957809335,Coffee Shop
5,"Rouge, Malvern",43.811525000000074,-79.19551746399998,Mr Jerk,4ceaa2f0f8653704f906bec4,43.801262219554275,-79.19975818333775,African Restaurant
6,"Rouge, Malvern",43.811525000000074,-79.19551746399998,What a Bakery,4bf01bf43a002d7f50ac85a4,43.798888,-79.196473,Bakery
7,"Highland Creek, Rouge Hill, Port Union",43.78566500000005,-79.15872457299997,"Lamanna's Bakery, Cafe & Fine Foods",4c000fde92a6c928b09443e2,43.7979714045181,-79.14843228726039,Bakery
8,"Highland Creek, Rouge Hill, Port Union",43.78566500000005,-79.15872457299997,Ted's Restaurant,4be6c179d4f7c9b665042720,43.78446796744621,-79.1692004571639,Breakfast Spot
12,"Highland Creek, Rouge Hill, Port Union",43.78566500000005,-79.15872457299997,Eggsmart,519f9fc9498ea72866bcb1fd,43.797979,-79.149207,Breakfast Spot
14,"Highland Creek, Rouge Hill, Port Union",43.78566500000005,-79.15872457299997,Wimpy's Diner,4ba50812f964a52010d338e3,43.79719046240819,-79.14969952971357,Breakfast Spot
17,"Highland Creek, Rouge Hill, Port Union",43.78566500000005,-79.15872457299997,Mr. Beans Coffee Co.,4bd2e4b7caff9521f191d3f0,43.77964590396574,-79.13788497447968,Coffee Shop
18,"Guildwood, Morningside, West Hill",43.76581500000003,-79.17519294699997,Chick-N-Joy,4bc366dab492d13a51b2a860,43.76875171771289,-79.18798174616069,Fried Chicken Joint
19,"Guildwood, Morningside, West Hill",43.76581500000003,-79.17519294699997,Booster Juice,4beca2f9d6e676b0538764d4,43.77066813,-79.18415042,Juice Bar
20,"Guildwood, Morningside, West Hill",43.76581500000003,-79.17519294699997,Sunset Grill,510bd6f1e4b0256d6cc14409,43.77231854994461,-79.18490011736371,Breakfast Spot
26,"Guildwood, Morningside, West Hill",43.76581500000003,-79.17519294699997,Kapit Bahay,4c1180cf72caa59362ad5da4,43.76931942785645,-79.18444235234782,Filipino Restaurant
27,"Guildwood, Morningside, West Hill",43.76581500000003,-79.17519294699997,Danny's Pub & International Cuisine,4d4cc5979ee1a35dfd6c1edf,43.7592840327422,-79.18053400045713,Restaurant
28,"Guildwood, Morningside, West Hill",43.76581500000003,-79.17519294699997,Sunny Up All Day Breakfast,4d6f8cd438a588bf38a40ce1,43.774986963984404,-79.1789559112651,Breakfast Spot
29,"Guildwood, Morningside, West Hill",43.76581500000003,-79.17519294699997,Eggsmart,4d95bd2ddaec224bf7bf043e,43.7678,-79.190466,Breakfast Spot
30,"Guildwood, Morningside, West Hill",43.76581500000003,-79.17519294699997,Big Bite Burrito,5411f741498e9ebd5e35d8bd,43.766299084470795,-79.19071980583941,Mexican Restaurant
37,Woburn,43.768369121000035,-79.21758999999997,Lucky Hakka,4b64765ff964a52028b52ae3,43.76246964027991,-79.21416375162714,Chinese Restaurant
42,Woburn,43.768369121000035,-79.21758999999997,Coffee Culture Cafe & Eatery,4b8bf7fbf964a5206eb532e3,43.77627788363806,-79.23402640869378,Coffee Shop
43,Woburn,43.768369121000035,-79.21758999999997,Aunty Mary's,4c23cf85f1272d7ff10682c5,43.76256617854289,-79.21557069034364,Fast Food Restaurant
45,Woburn,43.768369121000035,-79.21758999999997,Mr.Sub,4b7b168af964a520c1502fe3,43.761337,-79.216417,Sandwich Place
47,Woburn,43.768369121000035,-79.21758999999997,Fabian's Cafe,4e0a53e3d164028d170dc1b6,43.76815800171119,-79.22915850467795,Bakery
48,Woburn,43.768369121000035,-79.21758999999997,Country Style,4c87985cb231b60c559b1aec,43.77371602874512,-79.2070266305448,Coffee Shop
50,Woburn,43.768369121000035,-79.21758999999997,Wendy's,4b97cc7df964a520531635e3,43.78327147889442,-79.20439302921295,Fast Food Restaurant
52,Woburn,43.768369121000035,-79.21758999999997,So into Cupcakes,4f6f7236e4b07fa2c77fae8d,43.776258432832655,-79.2341315838387,Bakery
53,Woburn,43.768369121000035,-79.21758999999997,La Prep,52e6cc60498e4eea4e8da42f,43.7804278557511,-79.20504939039861,Café
54,Woburn,43.768369121000035,-79.21758999999997,D'Pavilion,4f73a9d2e4b0c356cf98dd9c,43.75737684327768,-79.23598196475945,Diner
56,Cedarbrae,43.76968799900004,-79.23943999999995,Fukuoka Sushi,4bf46644e5eba593d89e1f90,43.78067935750718,-79.24732025929174,Sushi Restaurant
57,Cedarbrae,43.76968799900004,-79.23943999999995,Cora's,4c87c446334537040e911572,43.78341688524566,-79.25310719667152,Breakfast Spot
58,Cedarbrae,43.76968799900004,-79.23943999999995,DAVIDsTEA,4c4bbc646e209521b57e16ec,43.77661326524622,-79.25851560939347,Tea Room
60,Cedarbrae,43.76968799900004,-79.23943999999995,Timothy's Coffee,4adf5a3df964a520c17921e3,43.77685540941018,-79.25188558949503,Coffee Shop
62,Cedarbrae,43.76968799900004,-79.23943999999995,Pumpernickel's,4ba77ef9f964a5203a9839e3,43.776882448908395,-79.25173280297763,Deli / Bodega
64,Cedarbrae,43.76968799900004,-79.23943999999995,TASTE MKT (Scarborough Town Centre Food Court),4ff87eb5e4b09751a81136be,43.775057654396534,-79.2571330379872,Food Court
69,Cedarbrae,43.76968799900004,-79.23943999999995,B&A Bakery,4e42cfc56284d1faa44a1083,43.77439074389114,-79.24387684648542,Bakery
73,Cedarbrae,43.76968799900004,-79.23943999999995,Coffee Culture Cafe & Eatery,4b8bf7fbf964a5206eb532e3,43.77627788363806,-79.23402640869378,Coffee Shop
79,Cedarbrae,43.76968799900004,-79.23943999999995,Fabian's Cafe,4e0a53e3d164028d170dc1b6,43.76815800171119,-79.22915850467795,Bakery
80,Cedarbrae,43.76968799900004,-79.23943999999995,So into Cupcakes,4f6f7236e4b07fa2c77fae8d,43.776258432832655,-79.2341315838387,Bakery
81,Cedarbrae,43.76968799900004,-79.23943999999995,The Blue Danube,4b880980f964a520d3da31e3,43.772840857250664,-79.24989169759249,German Restaurant
84,Cedarbrae,43.76968799900004,-79.23943999999995,Michel's Baguette French Bakery Cafe,4cf6580c6658548187c8c898,43.77513915806992,-79.25710470330432,Bakery
85,Cedarbrae,43.76968799900004,-79.23943999999995,Sammy's Family Restaurant,4defc00b7d8bb02cbf0210dc,43.75308986752855,-79.24468267232324,Breakfast Spot
88,Cedarbrae,43.76968799900004,-79.23943999999995,Piazza Manna,4b61cc06f964a52072232ae3,43.77692261408464,-79.2518091806429,Italian Restaurant
89,Cedarbrae,43.76968799900004,-79.23943999999995,Bendale Restaurant,4d90091d3bfef04dbce4bb86,43.75753469011006,-79.23870239913668,Diner
90,Cedarbrae,43.76968799900004,-79.23943999999995,D'Pavilion,4f73a9d2e4b0c356cf98dd9c,43.75737684327768,-79.23598196475945,Diner
91,Cedarbrae,43.76968799900004,-79.23943999999995,Koya Japan,4c5994d8ec2520a1375a4f12,43.77517017404646,-79.25718729560947,Asian Restaurant
92,Cedarbrae,43.76968799900004,-79.23943999999995,Jugo Juice,4ce97504678aa093745feeea,43.776285,-79.258597,Juice Bar
93,Cedarbrae,43.76968799900004,-79.23943999999995,Mac Sushi,4c9d001f9975a143e18337cf,43.77682191564565,-79.25841331421411,Sushi Restaurant
94,Cedarbrae,43.76968799900004,-79.23943999999995,Timothy's World Coffee,4cc1bf01967d5481b1cc7957,43.776755,-79.259008,Coffee Shop
95,Cedarbrae,43.76968799900004,-79.23943999999995,The Local Cafe Restaurant,583f175dfbe8ff549afaa9fd,43.7844523004027,-79.23057826015943,Bistro
97,Scarborough Village,43.74312500000008,-79.23174973599998,The Butcher Shop,4b06e498f964a5205df222e3,43.73786720022292,-79.2174198491369,Butcher
100,Scarborough Village,43.74312500000008,-79.23174973599998,Vi Pei Bistro - Bluffs,4bf54055cad2c928c5c99c99,43.72714826155886,-79.22964018336639,Bistro
108,Scarborough Village,43.74312500000008,-79.23174973599998,McDonald's,50526b60e4b050646bb02b04,43.742234,-79.22377,Fast Food Restaurant
115,Scarborough Village,43.74312500000008,-79.23174973599998,McDonald's,4bfdca018992a5935eb5acb0,43.743260826143874,-79.21506393214176,Fast Food Restaurant
116,Scarborough Village,43.74312500000008,-79.23174973599998,Swiss Chalet Rotisserie & Grill,4bb3e779f187a593b89e13f8,43.740377593835426,-79.23265630651542,Restaurant
117,Scarborough Village,43.74312500000008,-79.23174973599998,Sammy's Family Restaurant,4defc00b7d8bb02cbf0210dc,43.75308986752855,-79.24468267232324,Breakfast Spot
122,Scarborough Village,43.74312500000008,-79.23174973599998,Halibut House Fish and Chips Inc.,57470536498e136274e2f257,43.737541,-79.217342,Seafood Restaurant
123,Scarborough Village,43.74312500000008,-79.23174973599998,Mendoza's Bakery,4d56f615e7f1a1cd4f8d0da5,43.735396360469224,-79.24694582557048,Bakery
124,Scarborough Village,43.74312500000008,-79.23174973599998,Eggsmart,539c7055498e07c1346d0971,43.73673,-79.249051,Breakfast Spot
125,Scarborough Village,43.74312500000008,-79.23174973599998,D'Pavilion,4f73a9d2e4b0c356cf98dd9c,43.75737684327768,-79.23598196475945,Diner
127,Scarborough Village,43.74312500000008,-79.23174973599998,Bendale Restaurant,4d90091d3bfef04dbce4bb86,43.75753469011006,-79.23870239913668,Diner
128,"East Birchmount Park, Ionview, Kennedy Park",43.72627568400003,-79.26362499999993,Chung Moi,4b6475def964a520f9b42ae3,43.73232776751296,-79.26932737877392,Chinese Restaurant
138,"East Birchmount Park, Ionview, Kennedy Park",43.72627568400003,-79.26362499999993,Country Style,4e177fe0091ada32262c75a9,43.731827756817204,-79.26791408691976,Coffee Shop
140,"East Birchmount Park, Ionview, Kennedy Park",43.72627568400003,-79.26362499999993,Eggsmart,4b881ceff964a520b7e031e3,43.72756,-79.287184,Breakfast Spot
141,"East Birchmount Park, Ionview, Kennedy Park",43.72627568400003,-79.26362499999993,Wimpys Diner,4b93cf2af964a520c35234e3,43.71618188710609,-79.26161973842288,Fast Food Restaurant
142,"East Birchmount Park, Ionview, Kennedy Park",43.72627568400003,-79.26362499999993,2201 Eglinton Ave. Cafeteria,4b701d66f964a520bb072de3,43.72808059211484,-79.27885587259561,Cafeteria
145,"East Birchmount Park, Ionview, Kennedy Park",43.72627568400003,-79.26362499999993,Southern Accent,534ef438498ed6c8ab81aebb,43.71885322183824,-79.2508057250727,Cajun / Creole Restaurant
147,"East Birchmount Park, Ionview, Kennedy Park",43.72627568400003,-79.26362499999993,Eggsmart,539c7055498e07c1346d0971,43.73673,-79.249051,Breakfast Spot
148,"East Birchmount Park, Ionview, Kennedy Park",43.72627568400003,-79.26362499999993,Mendoza's Bakery,4d56f615e7f1a1cd4f8d0da5,43.735396360469224,-79.24694582557048,Bakery
149,"East Birchmount Park, Ionview, Kennedy Park",43.72627568400003,-79.26362499999993,FV Foods,4b9d3235f964a520619836e3,43.721075490242356,-79.2843421923731,Filipino Restaurant
150,"Clairlea, Golden Mile, Oakridge",43.71305350000006,-79.28505499999994,Gingerman Restaurant,4bd847e709ecb713146d487c,43.707844,-79.29558,Restaurant
151,"Clairlea, Golden Mile, Oakridge",43.71305350000006,-79.28505499999994,Ital Vital Rastarant,53729c0a498e019260644870,43.71721649169922,-79.29380798339844,Vegetarian / Vegan Restaurant
153,"Clairlea, Golden Mile, Oakridge",43.71305350000006,-79.28505499999994,D Spot Dessert Cafe,542c3917498e17795d30adc2,43.72291263114418,-79.28940474250896,Dessert Shop
154,"Clairlea, Golden Mile, Oakridge",43.71305350000006,-79.28505499999994,Peek Freans Cookie Outlet,4c69a3588e7c0f47e629e00f,43.71326033174486,-79.30806318602713,Bakery
165,"Clairlea, Golden Mile, Oakridge",43.71305350000006,-79.28505499999994,Bakery On The Go,4cb6527eb315a0934c469b76,43.711270905205765,-79.27950587661704,Bakery
166,"Clairlea, Golden Mile, Oakridge",43.71305350000006,-79.28505499999994,Cafe on the go,4eb2c6918b815ab741f9fcdd,43.71115104374148,-79.27946923512921,Bakery
167,"Clairlea, Golden Mile, Oakridge",43.71305350000006,-79.28505499999994,Eggsmart,4b881ceff964a520b7e031e3,43.72756,-79.287184,Breakfast Spot
170,"Clairlea, Golden Mile, Oakridge",43.71305350000006,-79.28505499999994,FV Foods,4b9d3235f964a520619836e3,43.721075490242356,-79.2843421923731,Filipino Restaurant
174,"Clairlea, Golden Mile, Oakridge",43.71305350000006,-79.28505499999994,Bread King Bakery,4c090fed009a0f47d70ae7bf,43.707411287852516,-79.2690128383178,Bakery
175,"Clairlea, Golden Mile, Oakridge",43.71305350000006,-79.28505499999994,Duffy's Drive-In Restaurant,4b0d2faef964a5206e4423e3,43.70221178731397,-79.29680943350886,Burger Joint
177,"Clairlea, Golden Mile, Oakridge",43.71305350000006,-79.28505499999994,La Famliglia,4e07c0f27d8b2a01805cf1e2,43.715112479048344,-79.30536141584285,Italian Restaurant
178,"Clairlea, Golden Mile, Oakridge",43.71305350000006,-79.28505499999994,2201 Eglinton Ave. Cafeteria,4b701d66f964a520bb072de3,43.72808059211484,-79.27885587259561,Cafeteria
180,"Clairlea, Golden Mile, Oakridge",43.71305350000006,-79.28505499999994,BeanWise (formerly Cultured Coffee Bean),540b37d7498e634754b1db46,43.71324905334155,-79.30785208267649,Coffee Shop
181,"Clairlea, Golden Mile, Oakridge",43.71305350000006,-79.28505499999994,Country Style,51bf10a4498ed21d675407a3,43.72648,-79.29978,Coffee Shop
182,"Clairlea, Golden Mile, Oakridge",43.71305350000006,-79.28505499999994,Wimpys Diner,4b93cf2af964a520c35234e3,43.71618188710609,-79.26161973842288,Fast Food Restaurant
183,"Clairlea, Golden Mile, Oakridge",43.71305350000006,-79.28505499999994,Mondelez,4bd32953b221c9b6a1ffd8d0,43.71326405563084,-79.30985171831507,Bakery
184,"Clairlea, Golden Mile, Oakridge",43.71305350000006,-79.28505499999994,Watt's Restaurant,4bf52553cad2c928e1a59c99,43.723853274021316,-79.29922526310501,Diner
185,"Cliffcrest, Cliffside, Scarborough Village West",43.724234575000025,-79.22792499999997,Vi Pei Bistro - Bluffs,4bf54055cad2c928c5c99c99,43.72714826155886,-79.22964018336639,Bistro
187,"Cliffcrest, Cliffside, Scarborough Village West",43.724234575000025,-79.22792499999997,The Butcher Shop,4b06e498f964a5205df222e3,43.73786720022292,-79.2174198491369,Butcher
194,"Cliffcrest, Cliffside, Scarborough Village West",43.724234575000025,-79.22792499999997,Cathedral Bluffs Yacht Club,4c66fed419f3c9b66b9da1ff,43.71131608295247,-79.22837734222412,Harbor / Marina
195,"Cliffcrest, Cliffside, Scarborough Village West",43.724234575000025,-79.22792499999997,Halibut House Fish and Chips Inc.,57470536498e136274e2f257,43.737541,-79.217342,Seafood Restaurant
196,"Cliffcrest, Cliffside, Scarborough Village West",43.724234575000025,-79.22792499999997,Swiss Chalet Rotisserie & Grill,4bb3e779f187a593b89e13f8,43.740377593835426,-79.23265630651542,Restaurant
197,"Cliffcrest, Cliffside, Scarborough Village West",43.724234575000025,-79.22792499999997,Southern Accent,534ef438498ed6c8ab81aebb,43.71885322183824,-79.2508057250727,Cajun / Creole Restaurant
199,"Cliffcrest, Cliffside, Scarborough Village West",43.724234575000025,-79.22792499999997,Mendoza's Bakery,4d56f615e7f1a1cd4f8d0da5,43.735396360469224,-79.24694582557048,Bakery
200,"Birch Cliff, Cliffside West",43.69677000000007,-79.25996735299998,The Birchcliff,56d51743498e60da346470e2,43.69166644406541,-79.26453158481682,Café
202,"Birch Cliff, Cliffside West",43.69677000000007,-79.25996735299998,Eggsmart,4c9e27d87c096dcb1020d2d1,43.707048,-79.250189,Breakfast Spot
206,"Birch Cliff, Cliffside West",43.69677000000007,-79.25996735299998,Wimpy's Diner,52d5ac8f11d2476f50fe5fbb,43.68904771098145,-79.26948627518628,Diner
209,"Birch Cliff, Cliffside West",43.69677000000007,-79.25996735299998,Vipei,4b3e8a74f964a520af9e25e3,43.70475277397929,-79.2521767496029,American Restaurant
210,"Birch Cliff, Cliffside West",43.69677000000007,-79.25996735299998,Premium Sweet,5227771811d2224141b30301,43.695566088366604,-79.27602056051339,Dessert Shop
211,"Birch Cliff, Cliffside West",43.69677000000007,-79.25996735299998,Bread King Bakery,4c090fed009a0f47d70ae7bf,43.707411287852516,-79.2690128383178,Bakery
212,"Birch Cliff, Cliffside West",43.69677000000007,-79.25996735299998,Bulk Barn,4c894c9594f5a093f4f8d61e,43.708699538649995,-79.25017338357856,Snack Place
214,"Birch Cliff, Cliffside West",43.69677000000007,-79.25996735299998,The Quarry Cafe,4c2783f8c11dc9b604ae2a24,43.68914089143703,-79.27800772955806,Breakfast Spot
216,"Dorset Park, Scarborough Town Centre, Wexford Heights",43.759975000000054,-79.26897418299995,Calabria Bakery,4bc88e208b7c9c743b5538cf,43.7616699583205,-79.26950674263456,Bakery
217,"Dorset Park, Scarborough Town Centre, Wexford Heights",43.759975000000054,-79.26897418299995,Spicy Dragon,4b647754f964a52079b52ae3,43.74921946341891,-79.27508200752006,Asian Restaurant
219,"Dorset Park, Scarborough Town Centre, Wexford Heights",43.759975000000054,-79.26897418299995,Chapters,4addebfef964a5204b6621e3,43.7723853898383,-79.28291075818032,Bookstore
221,"Dorset Park, Scarborough Town Centre, Wexford Heights",43.759975000000054,-79.26897418299995,Jollibee,5abb985d64c8e111cb92d2d4,43.77315327239498,-79.28081316044927,Filipino Restaurant
224,"Dorset Park, Scarborough Town Centre, Wexford Heights",43.759975000000054,-79.26897418299995,Patty King,4c23a14ca852c9280ed0e16c,43.77381844982371,-79.2681423412703,Fast Food Restaurant
228,"Dorset Park, Scarborough Town Centre, Wexford Heights",43.759975000000054,-79.26897418299995,Sunset Grill,567ad97a498e2bee5538bc0b,43.77358164882891,-79.28288321996222,Breakfast Spot
229,"Dorset Park, Scarborough Town Centre, Wexford Heights",43.759975000000054,-79.26897418299995,TASTE MKT (Scarborough Town Centre Food Court),4ff87eb5e4b09751a81136be,43.775057654396534,-79.2571330379872,Food Court
234,"Dorset Park, Scarborough Town Centre, Wexford Heights",43.759975000000054,-79.26897418299995,Eggsmart,4ba68ad4f964a5209c5c39e3,43.76878537914169,-79.281926897736,Breakfast Spot
238,"Dorset Park, Scarborough Town Centre, Wexford Heights",43.759975000000054,-79.26897418299995,Montmartre Bakery,4ce2c4fddb125481462649ce,43.754463,-79.267934,Bakery
240,"Dorset Park, Scarborough Town Centre, Wexford Heights",43.759975000000054,-79.26897418299995,Patisserie Royale,57878fef498e8b657945dec5,43.764908,-79.279904,Dessert Shop
241,"Dorset Park, Scarborough Town Centre, Wexford Heights",43.759975000000054,-79.26897418299995,Norman Sue Bakery,4ebea9e89a52cce4f3035957,43.770737078414214,-79.2685106525177,Bakery
242,"Dorset Park, Scarborough Town Centre, Wexford Heights",43.759975000000054,-79.26897418299995,Cake House Bakery,4f5bd5b7e4b0d8f7b6699db0,43.750564158244494,-79.27714901348529,Bakery
243,"Dorset Park, Scarborough Town Centre, Wexford Heights",43.759975000000054,-79.26897418299995,Jesse Jr. Filipino Foods,4cf14c49cc61a35dde01149e,43.74913222166638,-79.27510038619766,Asian Restaurant
244,"Dorset Park, Scarborough Town Centre, Wexford Heights",43.759975000000054,-79.26897418299995,Michel's Baguette French Bakery Cafe,4cf6580c6658548187c8c898,43.77513915806992,-79.25710470330432,Bakery
245,"Dorset Park, Scarborough Town Centre, Wexford Heights",43.759975000000054,-79.26897418299995,Eggsmart,52ff9581498ea28fea581034,43.769028,-79.28165,Breakfast Spot
246,"Dorset Park, Scarborough Town Centre, Wexford Heights",43.759975000000054,-79.26897418299995,Coffee Time,4dad8ab9043718a63e33e294,43.773307723529335,-79.27289954044328,Coffee Shop
248,"Dorset Park, Scarborough Town Centre, Wexford Heights",43.759975000000054,-79.26897418299995,Coffee In,4c24f0cdb7b8a59382573de8,43.7475437078872,-79.28360570466556,Filipino Restaurant
249,"Dorset Park, Scarborough Town Centre, Wexford Heights",43.759975000000054,-79.26897418299995,Koya Japan,4c5994d8ec2520a1375a4f12,43.77517017404646,-79.25718729560947,Asian Restaurant
250,"Dorset Park, Scarborough Town Centre, Wexford Heights",43.759975000000054,-79.26897418299995,Jugo Juice,4ce97504678aa093745feeea,43.776285,-79.258597,Juice Bar
251,"Maryvale, Wexford",43.750710464000065,-79.30055999999996,Kostas Meat Market,4cd56bc194848cfa2b1ae6b1,43.7606051148729,-79.30182964378845,Greek Restaurant
252,"Maryvale, Wexford",43.750710464000065,-79.30055999999996,Wexford Restaurant,4b8e9db3f964a5201b2c33e3,43.7460300445972,-79.29384330907153,Breakfast Spot
256,"Maryvale, Wexford",43.750710464000065,-79.30055999999996,The Bean Sprout,4c9f77980e9bb1f7659bf05f,43.742228835254664,-79.31357696452841,Chinese Restaurant
259,"Maryvale, Wexford",43.750710464000065,-79.30055999999996,Bruno's valu-mart,4bafa285f964a5203a123ce3,43.746143,-79.32463,Grocery Store
267,"Maryvale, Wexford",43.750710464000065,-79.30055999999996,Eggsmart,4d011f2aba1da1cd896f8c28,43.762008,-79.295726,Breakfast Spot
268,"Maryvale, Wexford",43.750710464000065,-79.30055999999996,Mr.Sub,4ccb5dc1b5cdbfb79ce885c1,43.752814,-79.314067,Restaurant
269,"Maryvale, Wexford",43.750710464000065,-79.30055999999996,Wimpy's Diner,4bdc564dfed22d7f10b257c9,43.759334850907884,-79.3098316408897,Breakfast Spot
270,"Maryvale, Wexford",43.750710464000065,-79.30055999999996,Coffee In,4c24f0cdb7b8a59382573de8,43.7475437078872,-79.28360570466556,Filipino Restaurant
272,"Maryvale, Wexford",43.750710464000065,-79.30055999999996,Valley Fields Family Restaurant,4ba4f1bcf964a52083c638e3,43.74145188427135,-79.3196334859321,Breakfast Spot
273,"Maryvale, Wexford",43.750710464000065,-79.30055999999996,The Prince - Shisha Lounge,4c3a64cd3849c928d3f3c2b1,43.736602724746405,-79.30781173902841,Middle Eastern Restaurant
274,"Maryvale, Wexford",43.750710464000065,-79.30055999999996,K C McFlys,4d9581ed2bd6f04d250a2050,43.73598654734451,-79.30620886692107,Wings Joint
275,"Maryvale, Wexford",43.750710464000065,-79.30055999999996,Bamboo Garden,4e456c11c65bd6ffbe83a106,43.73596810935831,-79.30623638143747,Chinese Restaurant
277,"Maryvale, Wexford",43.750710464000065,-79.30055999999996,Osmow's Authentic Mediterranean Restaurant,5a10ca986eda02780a5e7eb4,43.735943,-79.308014,Mediterranean Restaurant
278,"Maryvale, Wexford",43.750710464000065,-79.30055999999996,Star Grazing,5053db99e4b0845914e19430,43.766922111958195,-79.30291256915724,Food Truck
279,"Maryvale, Wexford",43.750710464000065,-79.30055999999996,Lone Tai Supermarket,4c0d9bcc2466a593bfe87721,43.7503458515419,-79.27718830128853,Asian Restaurant
280,"Maryvale, Wexford",43.750710464000065,-79.30055999999996,Cake House Bakery,4f5bd5b7e4b0d8f7b6699db0,43.750564158244494,-79.27714901348529,Bakery
281,"Maryvale, Wexford",43.750710464000065,-79.30055999999996,Mak euro deli,5026cbdee4b0dd4acc666818,43.740743,-79.320836,Deli / Bodega
282,Agincourt,43.79394000000008,-79.26797613999997,Yummy Cantonese Restaurant 老西関腸粉,540474fb498e979708c1eabb,43.787567846730724,-79.26958536632105,Cantonese Restaurant
283,Agincourt,43.79394000000008,-79.26797613999997,Grandeur Palace 華丽宮 (Grandeur Palace 華麗宮),58388814809a776da0e00646,43.79788486462263,-79.27058461606062,Chinese Restaurant
284,Agincourt,43.79394000000008,-79.26797613999997,Babu Catering & Take Out,4bacd8e3f964a52080113be3,43.791720827884255,-79.25113186858357,Sri Lankan Restaurant
285,Agincourt,43.79394000000008,-79.26797613999997,Panagio's Breakfast & Lunch,4e3451fcd4c063434821c41e,43.79237001092506,-79.26020325805978,Breakfast Spot
287,Agincourt,43.79394000000008,-79.26797613999997,Francesca Bakery,4bd444f5462cb71393ebdf07,43.787715953312,-79.25685232939088,Bakery
288,Agincourt,43.79394000000008,-79.26797613999997,Jesse Jr. (Filipino Foods & Restaurant),4c39cce80a71c9b61e0443c9,43.78756491773208,-79.26880977111882,Restaurant
289,Agincourt,43.79394000000008,-79.26797613999997,Cora's,4c87c446334537040e911572,43.78341688524566,-79.25310719667152,Breakfast Spot
290,Agincourt,43.79394000000008,-79.26797613999997,Samosa King - Embassy Restaurant,4aee2557f964a52080d221e3,43.81015178654958,-79.25731635003477,Indian Restaurant
291,Agincourt,43.79394000000008,-79.26797613999997,Perfect Chinese Restaurant 雅瓊海鮮酒家,4b29e021f964a520d4a324e3,43.78777423062292,-79.27029393705004,Chinese Restaurant
294,Agincourt,43.79394000000008,-79.26797613999997,Booster Juice,518e8872498e8a7180302e19,43.80991481104798,-79.26938167887475,Juice Bar
295,Agincourt,43.79394000000008,-79.26797613999997,El Pulgarcito,4b50b100f964a520b72d27e3,43.792647695283875,-79.25920775335268,Latin American Restaurant
298,Agincourt,43.79394000000008,-79.26797613999997,Shanghai Dim Sum,4c8ad1c61eafb1f7320e7e35,43.78703615843197,-79.26938030256589,Chinese Restaurant
300,Agincourt,43.79394000000008,-79.26797613999997,Fisherman Villa 褔臨門,4bb74fea1344b7136f8e9e04,43.78710781967966,-79.27593050538756,Hong Kong Restaurant
302,Agincourt,43.79394000000008,-79.26797613999997,Bistro Manila,4b1c0007f964a520810024e3,43.78788483949941,-79.26699795232821,Filipino Restaurant
303,Agincourt,43.79394000000008,-79.26797613999997,Restaurant 59,4d728acd27ddb60cb58fcf1b,43.80387422834321,-79.28805852527513,Chinese Restaurant
304,Agincourt,43.79394000000008,-79.26797613999997,Cakeview Bakery & Cafe 楓林餅屋,4bec5820fd60a59360dd3af1,43.80436280540223,-79.28734706152106,Bakery
305,Agincourt,43.79394000000008,-79.26797613999997,Global Imperial Cuisine 國寶軒,53925ee0498e8a555acfaea8,43.786719157990575,-79.2743816188499,Cantonese Restaurant
306,Agincourt,43.79394000000008,-79.26797613999997,Quiznos,4c5750926418a59356227f0e,43.78946932145228,-79.25862415054623,Sandwich Place
307,Agincourt,43.79394000000008,-79.26797613999997,Ocean Castle Seafood Restaurant,4e13471a8877ac23b67131df,43.78689596410336,-79.27397279647855,Asian Restaurant
308,Agincourt,43.79394000000008,-79.26797613999997,Grand Ocean Restaurant,4d2b495d6e27a143be653624,43.78693261153702,-79.27423007314356,Restaurant
309,Agincourt,43.79394000000008,-79.26797613999997,Red House Bakery,4d0d1782903d370454dcc155,43.78653751833312,-79.27575668671945,Bakery
310,Agincourt,43.79394000000008,-79.26797613999997,Casa Deluz 豪門宴,539dc3dd498e6ead0c742045,43.80895542975194,-79.26811265646485,Dim Sum Restaurant
311,Agincourt,43.79394000000008,-79.26797613999997,HK Garden 花園餐廳,5356a07e498e14ef6198dbfd,43.78666922108873,-79.27713800425371,Asian Restaurant
312,Agincourt,43.79394000000008,-79.26797613999997,The Niner Diner,4d88d7134757721e51cd9569,43.781919425963146,-79.25914283228654,Restaurant
313,Agincourt,43.79394000000008,-79.26797613999997,Kin Kin Bubble Tea Co,4d4daeac9ee1370408f4868b,43.807851553703514,-79.27029551638599,Chinese Restaurant
314,Agincourt,43.79394000000008,-79.26797613999997,Full House Chinese Cuisine 炳勝農家菜,4bad434ef964a5207a3f3be3,43.80459670304366,-79.28714764552099,Chinese Restaurant
315,Agincourt,43.79394000000008,-79.26797613999997,Bento Box,4c919f9a7f3b8cfae69a9e1e,43.809247850827546,-79.26902935359769,Japanese Restaurant
316,Agincourt,43.79394000000008,-79.26797613999997,Cakewood Bakery & Cafe,4dd2ec0eae60da0ebed24be4,43.80986005895067,-79.26953031570356,Bakery
318,Agincourt,43.79394000000008,-79.26797613999997,Dad's Cookies Outlet,4e44371dae605a14b7e3dd1c,43.77797985165876,-79.26241199837924,Bakery
320,"Clarks Corners, Sullivan, Tam O'Shanter",43.78472500000004,-79.29906603299997,The Royal Chinese Restaurant 避風塘小炒,4cdc8e53d4ecb1f7843c8048,43.78050473445372,-79.29884391314476,Chinese Restaurant
322,"Clarks Corners, Sullivan, Tam O'Shanter",43.78472500000004,-79.29906603299997,Chapters,4addebfef964a5204b6621e3,43.7723853898383,-79.28291075818032,Bookstore
323,"Clarks Corners, Sullivan, Tam O'Shanter",43.78472500000004,-79.29906603299997,Jollibee,5abb985d64c8e111cb92d2d4,43.77315327239498,-79.28081316044927,Filipino Restaurant
327,"Clarks Corners, Sullivan, Tam O'Shanter",43.78472500000004,-79.29906603299997,Whiteside Terrace Grille,4d950a9d942ba0930c91328c,43.77694182309464,-79.28278938056752,Restaurant
329,"Clarks Corners, Sullivan, Tam O'Shanter",43.78472500000004,-79.29906603299997,Sunset Grill,567ad97a498e2bee5538bc0b,43.77358164882891,-79.28288321996222,Breakfast Spot
333,"Clarks Corners, Sullivan, Tam O'Shanter",43.78472500000004,-79.29906603299997,Orchid Garden Deli and Grill,4c3e016c0596c928c7af8378,43.78405306358629,-79.29283034852892,Deli / Bodega
334,"Clarks Corners, Sullivan, Tam O'Shanter",43.78472500000004,-79.29906603299997,Kin Kin Bakery,4bb79df253649c74e3fa45fb,43.783808621101535,-79.2928468596051,Bakery
337,"Clarks Corners, Sullivan, Tam O'Shanter",43.78472500000004,-79.29906603299997,New Dynasty Bakery 新皇朝餅店,4c4352eaaf052d7fb83a8079,43.78267814809465,-79.28928124612113,Bakery
338,"Clarks Corners, Sullivan, Tam O'Shanter",43.78472500000004,-79.29906603299997,Bow Bulgogi House,4c0ae708ffb8c9b617756c61,43.7829461421013,-79.28817410864788,Korean Restaurant
340,"Clarks Corners, Sullivan, Tam O'Shanter",43.78472500000004,-79.29906603299997,Fisherman Villa 褔臨門,4bb74fea1344b7136f8e9e04,43.78710781967966,-79.27593050538756,Hong Kong Restaurant
341,"Clarks Corners, Sullivan, Tam O'Shanter",43.78472500000004,-79.29906603299997,Red Sail Boat Bakery 紅帆船西餅麵包,4b86e59cf964a5208fa431e3,43.791656127504304,-79.31331669728824,Bakery
342,"Clarks Corners, Sullivan, Tam O'Shanter",43.78472500000004,-79.29906603299997,Sagano Japanese Restaurant,4babf004f964a52025d73ae3,43.77664499933209,-79.28267609571084,Japanese Restaurant
343,"Clarks Corners, Sullivan, Tam O'Shanter",43.78472500000004,-79.29906603299997,Divine Wok Restaurant,4b2677d0f964a520f37b24e3,43.79910182815161,-79.3064832687378,Chinese Restaurant
344,"Clarks Corners, Sullivan, Tam O'Shanter",43.78472500000004,-79.29906603299997,ABC Euro Delicatessen,4b8ab825f964a520247c32e3,43.77640493266228,-79.31710948298333,Deli / Bodega
345,"Clarks Corners, Sullivan, Tam O'Shanter",43.78472500000004,-79.29906603299997,HK Garden 花園餐廳,5356a07e498e14ef6198dbfd,43.78666922108873,-79.27713800425371,Asian Restaurant
346,"Clarks Corners, Sullivan, Tam O'Shanter",43.78472500000004,-79.29906603299997,Red House Bakery,4d0d1782903d370454dcc155,43.78653751833312,-79.27575668671945,Bakery
347,"Clarks Corners, Sullivan, Tam O'Shanter",43.78472500000004,-79.29906603299997,Global Imperial Cuisine 國寶軒,53925ee0498e8a555acfaea8,43.786719157990575,-79.2743816188499,Cantonese Restaurant
348,"Clarks Corners, Sullivan, Tam O'Shanter",43.78472500000004,-79.29906603299997,Cousin Cafe 表哥茶餐廳,51d84f68498e20fcf16c13d9,43.78677856611482,-79.2771790430796,Hong Kong Restaurant
349,"Agincourt North, L'Amoreaux East, Milliken, Steeles East",43.81768500000004,-79.28018721399997,Fahmee Bakery & Jamaican Foods,4baf981cf964a5203d0e3ce3,43.81016961981095,-79.28011274320716,Caribbean Restaurant
351,"Agincourt North, L'Amoreaux East, Milliken, Steeles East",43.81768500000004,-79.28018721399997,Allan's Pastry Shop,4bdb5db73904a593eb0a4a9e,43.82095334214028,-79.30456380774818,Bakery
352,"Agincourt North, L'Amoreaux East, Milliken, Steeles East",43.81768500000004,-79.28018721399997,The Brighton Convention & Event Centre,4bf85e618d30d13a46a90018,43.81357046425045,-79.29542055833082,Event Space
353,"Agincourt North, L'Amoreaux East, Milliken, Steeles East",43.81768500000004,-79.28018721399997,Booster Juice,518e8872498e8a7180302e19,43.80991481104798,-79.26938167887475,Juice Bar
354,"Agincourt North, L'Amoreaux East, Milliken, Steeles East",43.81768500000004,-79.28018721399997,Chako Barbeque Izakaya,4b96e740f964a520aeec34e3,43.81438055103576,-79.29471416075395,Korean Restaurant
355,"Agincourt North, L'Amoreaux East, Milliken, Steeles East",43.81768500000004,-79.28018721399997,Sugar Sweet Cafe 八爪魚,4bc228d0b492d13ace13a760,43.82697141731077,-79.29118299916571,Chinese Restaurant
356,"Agincourt North, L'Amoreaux East, Milliken, Steeles East",43.81768500000004,-79.28018721399997,Magic Noodle 大槐樹,51c9c14a498e805f36dbf50f,43.81450033557617,-79.29434391454215,Chinese Restaurant
361,"Agincourt North, L'Amoreaux East, Milliken, Steeles East",43.81768500000004,-79.28018721399997,Marathon Donuts & Coffee 馬力雄,4b6ca4e3f964a520fc482ce3,43.80626915640563,-79.2885778177555,Coffee Shop
364,"Agincourt North, L'Amoreaux East, Milliken, Steeles East",43.81768500000004,-79.28018721399997,Tak Fu Seafood Restaurant 德福點心皇,4bf80e7e5efe2d7f36016a34,43.822633229713155,-79.29895769982762,Chinese Restaurant
365,"Agincourt North, L'Amoreaux East, Milliken, Steeles East",43.81768500000004,-79.28018721399997,Restaurant 59,4d728acd27ddb60cb58fcf1b,43.80387422834321,-79.28805852527513,Chinese Restaurant
366,"Agincourt North, L'Amoreaux East, Milliken, Steeles East",43.81768500000004,-79.28018721399997,Cakeview Bakery & Cafe 楓林餅屋,4bec5820fd60a59360dd3af1,43.80436280540223,-79.28734706152106,Bakery
367,"Agincourt North, L'Amoreaux East, Milliken, Steeles East",43.81768500000004,-79.28018721399997,Casa Deluz 豪門宴,539dc3dd498e6ead0c742045,43.80895542975194,-79.26811265646485,Dim Sum Restaurant
368,"Agincourt North, L'Amoreaux East, Milliken, Steeles East",43.81768500000004,-79.28018721399997,Very Fair Seafood Cuisine 鴻福海鮮大酒樓,4b6eff38f964a5209dd52ce3,43.80307672983049,-79.29361725934118,Chinese Restaurant
369,"Agincourt North, L'Amoreaux East, Milliken, Steeles East",43.81768500000004,-79.28018721399997,May Heung Yuen,4bc88a0b2f94d13aa1c3137f,43.825988432395874,-79.27742974845283,BBQ Joint
370,"Agincourt North, L'Amoreaux East, Milliken, Steeles East",43.81768500000004,-79.28018721399997,Tasty House  鉅記,4d3c420e557d6dcb1a093944,43.825928922000486,-79.27709482731093,Cantonese Restaurant
371,"Agincourt North, L'Amoreaux East, Milliken, Steeles East",43.81768500000004,-79.28018721399997,Ginger & Onion Cuisine,5a3962c291eaca55b4853cca,43.826073,-79.277534,Dim Sum Restaurant
372,"Agincourt North, L'Amoreaux East, Milliken, Steeles East",43.81768500000004,-79.28018721399997,Sharable Bakery 雪貝爾,4bb221b0f964a520a5bb3ce3,43.82613987526696,-79.27718204117224,Bakery
373,"Agincourt North, L'Amoreaux East, Milliken, Steeles East",43.81768500000004,-79.28018721399997,Da Hal Yee Noodle & Congee,5246dfdd498e0d768a44488b,43.81365342532697,-79.29123426406018,Fast Food Restaurant
374,"Agincourt North, L'Amoreaux East, Milliken, Steeles East",43.81768500000004,-79.28018721399997,Fragrant Bakery,4b25ca77f964a520417624e3,43.81398526579921,-79.2914576766686,Bakery
375,"Agincourt North, L'Amoreaux East, Milliken, Steeles East",43.81768500000004,-79.28018721399997,Food Court,50edacb6e4b0e72540f2f606,43.813611878767084,-79.29137706756592,Food Court
376,"Agincourt North, L'Amoreaux East, Milliken, Steeles East",43.81768500000004,-79.28018721399997,Cakewood Bakery & Cafe,4dd2ec0eae60da0ebed24be4,43.80986005895067,-79.26953031570356,Bakery
377,"Agincourt North, L'Amoreaux East, Milliken, Steeles East",43.81768500000004,-79.28018721399997,Full House Chinese Cuisine 炳勝農家菜,4bad434ef964a5207a3f3be3,43.80459670304366,-79.28714764552099,Chinese Restaurant
378,"Agincourt North, L'Amoreaux East, Milliken, Steeles East",43.81768500000004,-79.28018721399997,Bento Box,4c919f9a7f3b8cfae69a9e1e,43.809247850827546,-79.26902935359769,Japanese Restaurant
380,"Agincourt North, L'Amoreaux East, Milliken, Steeles East",43.81768500000004,-79.28018721399997,Baker's Best Bakery,4d559987611aa35d8fdc3639,43.826932,-79.290789,Bakery
381,"Agincourt North, L'Amoreaux East, Milliken, Steeles East",43.81768500000004,-79.28018721399997,Kin Kin Bubble Tea Co,4d4daeac9ee1370408f4868b,43.807851553703514,-79.27029551638599,Chinese Restaurant
382,"Agincourt North, L'Amoreaux East, Milliken, Steeles East",43.81768500000004,-79.28018721399997,Korean bbq restaurant,4cc9e797b7d9a1432502f936,43.80588826749549,-79.28901621176465,Korean Restaurant
383,"Agincourt North, L'Amoreaux East, Milliken, Steeles East",43.81768500000004,-79.28018721399997,Health Gourmet 食全食美,5176c35be4b0888c41e85fdb,43.80546923821083,-79.28791215928922,Chinese Restaurant
384,"Agincourt North, L'Amoreaux East, Milliken, Steeles East",43.81768500000004,-79.28018721399997,Jalandhar Meat Shop,4cfd8b0734c1a0939df6500e,43.820712,-79.261718,Indian Restaurant
385,"Agincourt North, L'Amoreaux East, Milliken, Steeles East",43.81768500000004,-79.28018721399997,Shaanxi Legend 漢唐府,4d61d0c7922960fca7f67e8b,43.805154458271126,-79.28893365297094,Chinese Restaurant
386,"Agincourt North, L'Amoreaux East, Milliken, Steeles East",43.81768500000004,-79.28018721399997,Royale Fine Dining Banquet 皇家御宴,536fac9d11d2034c97a3db0f,43.822865349581605,-79.30028576699264,Chinese Restaurant
388,"Agincourt North, L'Amoreaux East, Milliken, Steeles East",43.81768500000004,-79.28018721399997,Kung Fu Duck,4ec98d6be5fa232a77a3188f,43.803830853338646,-79.28911663823034,Chinese Restaurant
390,"Agincourt North, L'Amoreaux East, Milliken, Steeles East",43.81768500000004,-79.28018721399997,Harmony Resturant,5995f683123a1921c3a2a898,43.8227,-79.300802,Chinese Restaurant
391,"Agincourt North, L'Amoreaux East, Milliken, Steeles East",43.81768500000004,-79.28018721399997,Made In China Hot Pot 馥苑火鍋,4bda319863c5c9b6f6392368,43.80623511734908,-79.28851445678866,Hotpot Restaurant
392,"Agincourt North, L'Amoreaux East, Milliken, Steeles East",43.81768500000004,-79.28018721399997,Fishman Village 漁家灯火,56998264498e051e1f0939c1,43.825627,-79.299381,Seafood Restaurant
393,"Agincourt North, L'Amoreaux East, Milliken, Steeles East",43.81768500000004,-79.28018721399997,Taste Tea Station,4bd8a0c52e6f0f47a5e60708,43.81175597747071,-79.30169087330732,Tea Room
394,"Agincourt North, L'Amoreaux East, Milliken, Steeles East",43.81768500000004,-79.28018721399997,Food Kingdom 周記,5a137c2f4ce0663be053949a,43.823657,-79.302486,Asian Restaurant
395,"Agincourt North, L'Amoreaux East, Milliken, Steeles East",43.81768500000004,-79.28018721399997,Pine House Cafe 松屋,585db72d2ec364572e5c9d4c,43.831702396707044,-79.26581068821929,Cantonese Restaurant
396,"Agincourt North, L'Amoreaux East, Milliken, Steeles East",43.81768500000004,-79.28018721399997,Nikada Sushi Robata,4ba41039f964a520857d38e3,43.811668,-79.302939,Japanese Restaurant
397,"Agincourt North, L'Amoreaux East, Milliken, Steeles East",43.81768500000004,-79.28018721399997,Da Fu Seafood Cuisine 大福,4b773f63f964a520818b2ee3,43.83196734311731,-79.2670848559332,Chinese Restaurant
399,L'Amoreaux West,43.80088292800008,-79.32073999999994,Nicey's Takeout,4bc7cda2af07a59340fc7f2d,43.798579071005584,-79.33238889596792,Caribbean Restaurant
400,L'Amoreaux West,43.80088292800008,-79.32073999999994,Rosemary & Thyme,4c44346cdd1f2d7fbc767ff9,43.788243709036514,-79.330209703676,Breakfast Spot
401,L'Amoreaux West,43.80088292800008,-79.32073999999994,Phoenix Restaurant 金鳳餐廳,5542be72498e851f264ce89a,43.79819775434163,-79.31843152382791,Chinese Restaurant
402,L'Amoreaux West,43.80088292800008,-79.32073999999994,D&R Wings 美華茶餐廳,4c1b6f35b4e62d7f3951d993,43.814697995513114,-79.32394552167905,Chinese Restaurant
405,L'Amoreaux West,43.80088292800008,-79.32073999999994,Eggsmart,4cd6985967adf04d66d93391,43.796375,-79.318681,Breakfast Spot
408,L'Amoreaux West,43.80088292800008,-79.32073999999994,Crown Jewel Fine Dining 御膳豪庭,5244359611d25bbcd550a19a,43.813114,-79.322914,Chinese Restaurant
409,L'Amoreaux West,43.80088292800008,-79.32073999999994,ABC Bakery 美而廉餅家,4c07fb46b9bd9521c94dcb14,43.80679622704004,-79.33830574890452,Bakery
410,L'Amoreaux West,43.80088292800008,-79.32073999999994,Xin Jiang Barbeque Restaurant,4bb6c8f72f70c9b66e048630,43.80454741141563,-79.33099136451892,Chinese Restaurant
413,L'Amoreaux West,43.80088292800008,-79.32073999999994,Crown Prince Fine Dining 紫京盛宴,4b2e5594f964a52069de24e3,43.80654509036195,-79.33837249873136,Dim Sum Restaurant
414,L'Amoreaux West,43.80088292800008,-79.32073999999994,Taco Bell,4c811815d92ea0934c6e3d72,43.798897858187395,-79.31870122759385,Fast Food Restaurant
416,L'Amoreaux West,43.80088292800008,-79.32073999999994,Coffee Time,4e4bcc4162e1ce23e579d8dc,43.79795157870593,-79.31867761416008,Coffee Shop
420,L'Amoreaux West,43.80088292800008,-79.32073999999994,China china,4e3c8263d4c058f9dbf9169b,43.792331,-79.32679365999999,Chinese Restaurant
421,L'Amoreaux West,43.80088292800008,-79.32073999999994,Red Sail Boat Bakery 紅帆船西餅麵包,4b86e59cf964a5208fa431e3,43.791656127504304,-79.31331669728824,Bakery
422,L'Amoreaux West,43.80088292800008,-79.32073999999994,Divine Wok Restaurant,4b2677d0f964a520f37b24e3,43.79910182815161,-79.3064832687378,Chinese Restaurant
423,L'Amoreaux West,43.80088292800008,-79.32073999999994,Grape Vine Bakery,4b9eb1e3f964a52043fa36e3,43.803754702900555,-79.33532018650824,Bakery
424,L'Amoreaux West,43.80088292800008,-79.32073999999994,Red Sail Boat Bakery,51658b32e4b01810934c4587,43.78943642187424,-79.333713826613,Bakery
428,L'Amoreaux West,43.80088292800008,-79.32073999999994,Delimark Cafe,511e7323e4b0d2f60a6ba9d7,43.801479862102106,-79.34393464329777,Café
429,L'Amoreaux West,43.80088292800008,-79.32073999999994,Nikada Sushi Robata,4ba41039f964a520857d38e3,43.811668,-79.302939,Japanese Restaurant
430,L'Amoreaux West,43.80088292800008,-79.32073999999994,Taste Tea Station,4bd8a0c52e6f0f47a5e60708,43.81175597747071,-79.30169087330732,Tea Room
432,L'Amoreaux West,43.80088292800008,-79.32073999999994,Yogi Noodle 鏞記,4b592195f964a520337e28e3,43.814923553013124,-79.32349109296707,Chinese Restaurant
433,L'Amoreaux West,43.80088292800008,-79.32073999999994,Landmark Seafood Cuisine 富臨門海鮮酒家,4ef0cc69991107885c190eb3,43.804026123691806,-79.33585654955806,Chinese Restaurant
434,Upper Rouge,43.83421500000003,-79.21670085099998,Claudettes Culinary Cooking Grounds,4e405b68a809ba757c2f75d9,43.81879,-79.204304,Latin American Restaurant
435,Upper Rouge,43.83421500000003,-79.21670085099998,Bens BBQ Grilling Grounds,4e0e08caa8099e152604ba44,43.81874582847636,-79.20422855116519,Steakhouse
436,Upper Rouge,43.83421500000003,-79.21670085099998,Lilings Kitchen,4e405ae962e19d610993c29f,43.818723,-79.204218,Asian Restaurant
437,Hillcrest Village,43.80284500000005,-79.35620744999994,Tastee,4bd9842be914a593adbd56fa,43.80772211146167,-79.35679781099806,Bakery
439,Hillcrest Village,43.80284500000005,-79.35620744999994,Nicey's Takeout,4bc7cda2af07a59340fc7f2d,43.798579071005584,-79.33238889596792,Caribbean Restaurant
440,Hillcrest Village,43.80284500000005,-79.35620744999994,Phoenix Restaurant 金鳳餐廳,4af86560f964a520d80c22e3,43.81772238564974,-79.34942407604751,Asian Restaurant
445,Hillcrest Village,43.80284500000005,-79.35620744999994,ABC Bakery 美而廉餅家,4c07fb46b9bd9521c94dcb14,43.80679622704004,-79.33830574890452,Bakery
452,Hillcrest Village,43.80284500000005,-79.35620744999994,Crown Prince Fine Dining 紫京盛宴,4b2e5594f964a52069de24e3,43.80654509036195,-79.33837249873136,Dim Sum Restaurant
453,Hillcrest Village,43.80284500000005,-79.35620744999994,Wimpy's Diner,4b8844f0f964a52096eb31e3,43.81284540411792,-79.35838737717111,Diner
457,Hillcrest Village,43.80284500000005,-79.35620744999994,Paradise Fine Chinese Dining 世外桃園新派優雅食府,4ad9f43bf964a5204e1c21e3,43.79126996727257,-79.36767919435668,Chinese Restaurant
458,Hillcrest Village,43.80284500000005,-79.35620744999994,Delimark Cafe,511e7323e4b0d2f60a6ba9d7,43.801479862102106,-79.34393464329777,Café
459,Hillcrest Village,43.80284500000005,-79.35620744999994,Pita Pit,4e42a8c762e13c6ce80c3792,43.795059446833,-79.35003966093063,Sandwich Place
461,Hillcrest Village,43.80284500000005,-79.35620744999994,Seneca Bus-Stop Hotdog Stand,509aa57ae4b01570b1a4dc20,43.79403120384038,-79.34935467727848,Hot Dog Joint
462,Hillcrest Village,43.80284500000005,-79.35620744999994,Judy's Bakery,4e557d601495b62c8a0d4eec,43.81306357344498,-79.35835113176817,Bakery
463,Hillcrest Village,43.80284500000005,-79.35620744999994,Pickle Barrel,4b6387bef964a52038812ae3,43.79958756635042,-79.36909345506989,Diner
465,Hillcrest Village,43.80284500000005,-79.35620744999994,Tangerine Café,4b7437d0f964a520cdcd2de3,43.8126833095339,-79.34526029662402,Bank
466,Hillcrest Village,43.80284500000005,-79.35620744999994,Pebble Beach Cafe,4d65311a823ca35d6196fc88,43.81528304547393,-79.3455737363026,Café
467,Hillcrest Village,43.80284500000005,-79.35620744999994,Grape Vine Bakery,4b9eb1e3f964a52043fa36e3,43.803754702900555,-79.33532018650824,Bakery
468,Hillcrest Village,43.80284500000005,-79.35620744999994,Country Style,4b820e70f964a52048c930e3,43.820107,-79.350779,Coffee Shop
469,Hillcrest Village,43.80284500000005,-79.35620744999994,Vietnamese Delight Pho 肥牛粉,4b833b13f964a52074fe30e3,43.79416817943687,-79.35351902927763,Vietnamese Restaurant
470,Hillcrest Village,43.80284500000005,-79.35620744999994,Tasty Delight Fusion Cuisine 新斗餐房,552ffe11498ee806984fe7d7,43.79111450590389,-79.36706693150107,Asian Restaurant
471,Hillcrest Village,43.80284500000005,-79.35620744999994,Landmark Seafood Cuisine 富臨門海鮮酒家,4ef0cc69991107885c190eb3,43.804026123691806,-79.33585654955806,Chinese Restaurant
472,"Fairview, Henry Farm, Oriole",43.780970000000025,-79.34781328099996,Michel's Baguette,4bbaa0f17421a5937311c440,43.77708227220403,-79.34455653003414,Breakfast Spot
473,"Fairview, Henry Farm, Oriole",43.780970000000025,-79.34781328099996,Rosemary & Thyme,4c44346cdd1f2d7fbc767ff9,43.788243709036514,-79.330209703676,Breakfast Spot
474,"Fairview, Henry Farm, Oriole",43.780970000000025,-79.34781328099996,Jerusalem Restaurant,4b2ec400f964a52055e624e3,43.778862961627105,-79.36427332471165,Middle Eastern Restaurant
477,"Fairview, Henry Farm, Oriole",43.780970000000025,-79.34781328099996,Aroma Espresso Bar,50bceb3ae4b01dc9b287cc99,43.777700197902725,-79.34465166972005,Coffee Shop
480,"Fairview, Henry Farm, Oriole",43.780970000000025,-79.34781328099996,Aroma Espresso Bar,5a8478c1f427de78ff32023e,43.77088,-79.331775,Coffee Shop
481,"Fairview, Henry Farm, Oriole",43.780970000000025,-79.34781328099996,Druxy's,4b8ff9d2f964a520846d33e3,43.773809531275965,-79.36774570473017,Deli / Bodega
483,"Fairview, Henry Farm, Oriole",43.780970000000025,-79.34781328099996,Beiruti Grand Cafe,56324c22498e36ed08e43c0a,43.773001568417364,-79.33253288902613,Middle Eastern Restaurant
494,"Fairview, Henry Farm, Oriole",43.780970000000025,-79.34781328099996,Druxy's,4bace61ef964a5203b173be3,43.77878702526164,-79.34444702976553,Deli / Bodega
495,"Fairview, Henry Farm, Oriole",43.780970000000025,-79.34781328099996,Pablo Cheesetart,5c0ed002c8b2fb002cbb52be,43.778313,-79.344583,Pastry Shop
496,"Fairview, Henry Farm, Oriole",43.780970000000025,-79.34781328099996,Cinnabon,4beb233ba9900f47946c1740,43.77725821912876,-79.34462686293246,Bakery
497,"Fairview, Henry Farm, Oriole",43.780970000000025,-79.34781328099996,Tarts Treats & Coffee,59fe129cf4b52520eb2865c7,43.77579,-79.34634,Coffee Shop
498,"Fairview, Henry Farm, Oriole",43.780970000000025,-79.34781328099996,Michel's Baguette,51366c4be4b0b3485adfcbf9,43.77432584600824,-79.34668494032192,Bakery
502,"Fairview, Henry Farm, Oriole",43.780970000000025,-79.34781328099996,Druxy's,4ae73a1df964a52090a921e3,43.77460023433525,-79.33783969513078,Deli / Bodega
503,"Fairview, Henry Farm, Oriole",43.780970000000025,-79.34781328099996,Paradise Fine Chinese Dining 世外桃園新派優雅食府,4ad9f43bf964a5204e1c21e3,43.79126996727257,-79.36767919435668,Chinese Restaurant
504,"Fairview, Henry Farm, Oriole",43.780970000000025,-79.34781328099996,Timothy's World Coffee,4b1fc74df964a520f82824e3,43.76961,-79.330904,Coffee Shop
505,"Fairview, Henry Farm, Oriole",43.780970000000025,-79.34781328099996,Select Sandwich,4e3963c2a809d73012e52fa9,43.77210832224266,-79.33750963238352,Sandwich Place
506,"Fairview, Henry Farm, Oriole",43.780970000000025,-79.34781328099996,Seneca Bus-Stop Hotdog Stand,509aa57ae4b01570b1a4dc20,43.79403120384038,-79.34935467727848,Hot Dog Joint
509,"Fairview, Henry Farm, Oriole",43.780970000000025,-79.34781328099996,Red Sail Boat Bakery,51658b32e4b01810934c4587,43.78943642187424,-79.333713826613,Bakery
510,"Fairview, Henry Farm, Oriole",43.780970000000025,-79.34781328099996,Shawarma and Kebob,4e1a1e9188777e964780d302,43.76698965408248,-79.34699846901431,Middle Eastern Restaurant
511,"Fairview, Henry Farm, Oriole",43.780970000000025,-79.34781328099996,Pita Pit,4e42a8c762e13c6ce80c3792,43.795059446833,-79.35003966093063,Sandwich Place
512,"Fairview, Henry Farm, Oriole",43.780970000000025,-79.34781328099996,Canadian Tire Street Meat,4c6c1a0446353704d07105bc,43.7717584029455,-79.36409243129752,Food Truck
514,"Fairview, Henry Farm, Oriole",43.780970000000025,-79.34781328099996,Treats Coffee Emporium,50119a75e4b09cb7de8651b3,43.77279739005837,-79.32819540756363,Coffee Shop
515,"Fairview, Henry Farm, Oriole",43.780970000000025,-79.34781328099996,IBM Lunch Room,4c5032f31886c9b6627e4828,43.77017313494101,-79.33020680910577,Restaurant
516,"Fairview, Henry Farm, Oriole",43.780970000000025,-79.34781328099996,Atrium Cafe And Juice Bar,4c069382cf8c76b0b8b43a65,43.77017445789965,-79.33017348621118,Café
517,"Fairview, Henry Farm, Oriole",43.780970000000025,-79.34781328099996,Sweet Rosie's Cafe,4c62cf7986b6be9a09f08c34,43.77425550037065,-79.32518095020244,Café
518,"Fairview, Henry Farm, Oriole",43.780970000000025,-79.34781328099996,Vietnamese Delight Pho 肥牛粉,4b833b13f964a52074fe30e3,43.79416817943687,-79.35351902927763,Vietnamese Restaurant
519,"Fairview, Henry Farm, Oriole",43.780970000000025,-79.34781328099996,Tasty Delight Fusion Cuisine 新斗餐房,552ffe11498ee806984fe7d7,43.79111450590389,-79.36706693150107,Asian Restaurant
520,Bayview Village,43.781015000000025,-79.38052867199997,Jerusalem Restaurant,4b2ec400f964a52055e624e3,43.778862961627105,-79.36427332471165,Middle Eastern Restaurant
521,Bayview Village,43.781015000000025,-79.38052867199997,Sunshine Spot,4c37332c3849c928713bbdb1,43.770162103240736,-79.37477798821956,Breakfast Spot
522,Bayview Village,43.781015000000025,-79.38052867199997,IKEA Restaurant,4d2a05e055a8b60c16d7dbc0,43.76835882684743,-79.36851709651603,Scandinavian Restaurant
523,Bayview Village,43.781015000000025,-79.38052867199997,Aroma Espresso Bar,505a03d8e4b09e8b72852f20,43.76855041240926,-79.38650185841739,Café
524,Bayview Village,43.781015000000025,-79.38052867199997,Druxy's,4b8ff9d2f964a520846d33e3,43.773809531275965,-79.36774570473017,Deli / Bodega
525,Bayview Village,43.781015000000025,-79.38052867199997,Peking Man 牛家莊,4b3e8e54f964a520e19e25e3,43.770886228080634,-79.36945927876354,Chinese Restaurant
527,Bayview Village,43.781015000000025,-79.38052867199997,valu-mart On Bayview,4c1138f8d41e76b0a007310d,43.790843,-79.392045,Grocery Store
532,Bayview Village,43.781015000000025,-79.38052867199997,Timothy's World Coffee,4c079a818a81c9b6056b2790,43.76930460884025,-79.38655325779926,Café
534,Bayview Village,43.781015000000025,-79.38052867199997,Paradise Fine Chinese Dining 世外桃園新派優雅食府,4ad9f43bf964a5204e1c21e3,43.79126996727257,-79.36767919435668,Chinese Restaurant
536,Bayview Village,43.781015000000025,-79.38052867199997,Lettieri,4b8187bcf964a520cfac30e3,43.76901544989478,-79.38416197611689,Coffee Shop
537,Bayview Village,43.781015000000025,-79.38052867199997,Bakery Garden,4b7725e5f964a52043822ee3,43.76861503954629,-79.3863210371141,Bakery
540,Bayview Village,43.781015000000025,-79.38052867199997,Canadian Tire Street Meat,4c6c1a0446353704d07105bc,43.7717584029455,-79.36409243129752,Food Truck
541,Bayview Village,43.781015000000025,-79.38052867199997,Timothy's Cafe,4b81822cf964a52031ab30e3,43.766565,-79.392905,Coffee Shop
542,Bayview Village,43.781015000000025,-79.38052867199997,Tasty Delight Fusion Cuisine 新斗餐房,552ffe11498ee806984fe7d7,43.79111450590389,-79.36706693150107,Asian Restaurant
544,"Silver Hills, York Mills",43.75709511900004,-79.38031999999998,What a Bagel,4b6b0b5df964a520edee2be3,43.754330081991476,-79.35746465464855,Bagel Shop
545,"Silver Hills, York Mills",43.75709511900004,-79.38031999999998,IKEA Restaurant,4d2a05e055a8b60c16d7dbc0,43.76835882684743,-79.36851709651603,Scandinavian Restaurant
546,"Silver Hills, York Mills",43.75709511900004,-79.38031999999998,Sunshine Spot,4c37332c3849c928713bbdb1,43.770162103240736,-79.37477798821956,Breakfast Spot
547,"Silver Hills, York Mills",43.75709511900004,-79.38031999999998,Aroma Espresso Bar,505a03d8e4b09e8b72852f20,43.76855041240926,-79.38650185841739,Café
548,"Silver Hills, York Mills",43.75709511900004,-79.38031999999998,Booster Juice,4b893311f964a5207a2232e3,43.75376671,-79.35900467,Juice Bar
552,"Silver Hills, York Mills",43.75709511900004,-79.38031999999998,Wimpy's Diner,4c796e0581bca0939d66fd14,43.76397143768718,-79.39886788029243,Diner
556,"Silver Hills, York Mills",43.75709511900004,-79.38031999999998,Peking Man 牛家莊,4b3e8e54f964a520e19e25e3,43.770886228080634,-79.36945927876354,Chinese Restaurant
560,"Silver Hills, York Mills",43.75709511900004,-79.38031999999998,Windfields Restaurant,4b53cc0cf964a520a3ab27e3,43.75330963411871,-79.3588366714113,Diner
565,"Silver Hills, York Mills",43.75709511900004,-79.38031999999998,Timothy's World Coffee,4c079a818a81c9b6056b2790,43.76930460884025,-79.38655325779926,Café
568,"Silver Hills, York Mills",43.75709511900004,-79.38031999999998,Lettieri,4b8187bcf964a520cfac30e3,43.76901544989478,-79.38416197611689,Coffee Shop
569,"Silver Hills, York Mills",43.75709511900004,-79.38031999999998,Bakery Garden,4b7725e5f964a52043822ee3,43.76861503954629,-79.3863210371141,Bakery
570,"Silver Hills, York Mills",43.75709511900004,-79.38031999999998,Nortown Foods,4bd74190f645c9b6968ca5e0,43.74749734819542,-79.38493506310054,Butcher
571,"Silver Hills, York Mills",43.75709511900004,-79.38031999999998,Nortown Foods,4b4a4678f964a520e48126e3,43.747296823287364,-79.38504045780961,Butcher
572,"Silver Hills, York Mills",43.75709511900004,-79.38031999999998,Country Style,4f1d5813e4b0889e07316497,43.747103,-79.384689,Coffee Shop
574,"Silver Hills, York Mills",43.75709511900004,-79.38031999999998,Timothy's Cafe,4b81822cf964a52031ab30e3,43.766565,-79.392905,Coffee Shop
575,"Silver Hills, York Mills",43.75709511900004,-79.38031999999998,Coffee Time,4c13ab787f7f2d7fc06adf68,43.7639002546235,-79.39930991494059,Coffee Shop
576,"Silver Hills, York Mills",43.75709511900004,-79.38031999999998,Country Style,4c47806089a6c9b6fb819a88,43.75296220574307,-79.35978073768551,Coffee Shop
579,"Newtonbrook, Willowdale",43.79147500000005,-79.41360487299994,Yogoberri,4b63a75ff964a520f1892ae3,43.79054894709088,-79.41827945932056,Dessert Shop
580,"Newtonbrook, Willowdale",43.79147500000005,-79.41360487299994,Man Ri Jang Sung,4b945aedf964a520fe7534e3,43.79802112237138,-79.42522425918246,Korean Restaurant
581,"Newtonbrook, Willowdale",43.79147500000005,-79.41360487299994,Sunny Dragon 해룡반점,4c17e1611436a59399818c75,43.79520444289764,-79.43452649236296,Korean Restaurant
582,"Newtonbrook, Willowdale",43.79147500000005,-79.41360487299994,Nino D'Aversa,4b894c75f964a520962932e3,43.80472043121584,-79.42135033802097,Bakery
584,"Newtonbrook, Willowdale",43.79147500000005,-79.41360487299994,Burrito Place,51795105498e74dbd890c160,43.781257794964446,-79.41580077815041,Burrito Place
586,"Newtonbrook, Willowdale",43.79147500000005,-79.41360487299994,Pyung Won House,4df2bb3662e1288ed301a91b,43.779386308496164,-79.41551064596432,Korean Restaurant
590,"Newtonbrook, Willowdale",43.79147500000005,-79.41360487299994,Toronto a la Cart - Korean,4be4ab88910020a19614d214,43.78056324457225,-79.41580061252955,Food Stand
593,"Newtonbrook, Willowdale",43.79147500000005,-79.41360487299994,Booster Juice,4d275804849f3704c02f6841,43.78109225,-79.41666875,Juice Bar
594,"Newtonbrook, Willowdale",43.79147500000005,-79.41360487299994,Finch Station Hot Dog Stand,4d31363f72a8b1f79e0992d0,43.78220254687473,-79.41547751426697,Hot Dog Joint
596,"Newtonbrook, Willowdale",43.79147500000005,-79.41360487299994,Lim Ga Ne 임가네,4bbfdb854cdfc9b6d0199221,43.778352684061865,-79.41500008106232,Korean Restaurant
597,"Newtonbrook, Willowdale",43.79147500000005,-79.41360487299994,Centerpoint Mall Food Court,50df6f27e4b0f34003f187ea,43.795759152501695,-79.422930714389,Food Court
598,"Newtonbrook, Willowdale",43.79147500000005,-79.41360487299994,Coffee Time,4bc0d373b492d13a61f6a460,43.7871378128979,-79.41749708443858,Coffee Shop
600,"Newtonbrook, Willowdale",43.79147500000005,-79.41360487299994,Thai Express,553a7413498e754de33cc778,43.780178,-79.416408,Thai Restaurant
602,"Newtonbrook, Willowdale",43.79147500000005,-79.41360487299994,Bellafornia,5a57ec8525ecca0ede412e6d,43.802031,-79.420638,Coffee Shop
604,"Newtonbrook, Willowdale",43.79147500000005,-79.41360487299994,Thai Express,52c1d947498e3010ce904702,43.795875,-79.422295,Thai Restaurant
606,"Newtonbrook, Willowdale",43.79147500000005,-79.41360487299994,valu-mart On Bayview,4c1138f8d41e76b0a007310d,43.790843,-79.392045,Grocery Store
607,"Newtonbrook, Willowdale",43.79147500000005,-79.41360487299994,The Pickle Barrel,4b8aa1d7f964a5205b7632e3,43.795828751381784,-79.42119113369326,American Restaurant
608,"Newtonbrook, Willowdale",43.79147500000005,-79.41360487299994,Kayagum 가야금,4f3ae177e4b0a9ee4bcd617c,43.777977,-79.41528,Korean Restaurant
610,"Newtonbrook, Willowdale",43.79147500000005,-79.41360487299994,Friendly House,4c9d74228afca0939d69f715,43.78695370690274,-79.41758128879879,Diner
611,"Newtonbrook, Willowdale",43.79147500000005,-79.41360487299994,Country Style,4b50cb44f964a520d83227e3,43.796711133370245,-79.41949616049571,Coffee Shop
612,"Newtonbrook, Willowdale",43.79147500000005,-79.41360487299994,Freshii,53eb8b1d498eba6a06ed392a,43.78045275747216,-79.41647666826644,Salad Place
613,"Newtonbrook, Willowdale",43.79147500000005,-79.41360487299994,Magic Noodle 大槐树,586db9e28ee560529b394bea,43.77733535211549,-79.41479481709487,Noodle House
614,"Newtonbrook, Willowdale",43.79147500000005,-79.41360487299994,Pho Bistro,4bfffc80369476b00da68e1f,43.79761058662317,-79.42467652844333,Vietnamese Restaurant
615,"Newtonbrook, Willowdale",43.79147500000005,-79.41360487299994,Timothy's World Coffee,4ebd57af7ee5326f02378307,43.795809782388844,-79.42237957856864,Coffee Shop
616,"Newtonbrook, Willowdale",43.79147500000005,-79.41360487299994,select sandwich,4b6711e5f964a52055382be3,43.783235654204965,-79.41618307009091,Breakfast Spot
617,"Newtonbrook, Willowdale",43.79147500000005,-79.41360487299994,Timothy's World Coffee,4ae5f6d5f964a52094a321e3,43.781066,-79.416408,Coffee Shop
618,"Newtonbrook, Willowdale",43.79147500000005,-79.41360487299994,BonFlavour,57586fad498efbef8ba7dbfa,43.798286,-79.425111,Dim Sum Restaurant
619,"Newtonbrook, Willowdale",43.79147500000005,-79.41360487299994,Pumpernickel's,4e1339bad22d759bae71f146,43.78068290710406,-79.41621833861035,Food Court
620,"Newtonbrook, Willowdale",43.79147500000005,-79.41360487299994,Brioche Dorée,59592666033693555b340735,43.780643221114985,-79.41648707470817,Café
621,"Newtonbrook, Willowdale",43.79147500000005,-79.41360487299994,Fit for Life,4c7411b81b30a09332a2eb09,43.780626032102646,-79.41651020537995,Fast Food Restaurant
622,"Newtonbrook, Willowdale",43.79147500000005,-79.41360487299994,Soly's Grill,4bf2bce677b4c9281d996a1c,43.78055171356184,-79.41751932334266,Food Court
623,"Newtonbrook, Willowdale",43.79147500000005,-79.41360487299994,Piazza Manna,4cdc32954006a1438939ddb2,43.780095610411514,-79.41617488861084,Italian Restaurant
625,"Newtonbrook, Willowdale",43.79147500000005,-79.41360487299994,Hashi Izakaya,558cb233498e6b9b9c6d2f01,43.779255375894586,-79.41559505120857,Japanese Restaurant
626,"Newtonbrook, Willowdale",43.79147500000005,-79.41360487299994,Coffee Box,5a160f40c47cf927fef3beb7,43.80355322898505,-79.42007809305458,Café
627,"Newtonbrook, Willowdale",43.79147500000005,-79.41360487299994,Cakes by Robert,4c3634d02c8020a1faec8600,43.806213,-79.410921,Dessert Shop
630,Willowdale South,43.76816500000007,-79.40741984599998,Aroma Espresso Bar,557767bc498ea4a20c8043f6,43.76944882099181,-79.41308107735675,Café
631,Willowdale South,43.76816500000007,-79.40741984599998,Bake Code 烘焙密碼,55d4174a498e4282465852fd,43.763968809039525,-79.41164099097621,Bakery
633,Willowdale South,43.76816500000007,-79.40741984599998,Rabba Fine Foods,4af727f7f964a520870622e3,43.75795227432312,-79.40893623239137,Grocery Store
634,Willowdale South,43.76816500000007,-79.40741984599998,Booster Juice,58c184204f218a16d13f758b,43.76889,-79.4129899,Juice Bar
635,Willowdale South,43.76816500000007,-79.40741984599998,Owl of Minerva,4b2ea56cf964a52034e424e3,43.773327812864714,-79.41391451544317,Korean Restaurant
637,Willowdale South,43.76816500000007,-79.40741984599998,Ajisen Ramen 味千ラーメン,4b315d90f964a520840525e3,43.771444,-79.413139,Ramen Restaurant
639,Willowdale South,43.76816500000007,-79.40741984599998,Pyung Won House,4df2bb3662e1288ed301a91b,43.779386308496164,-79.41551064596432,Korean Restaurant
640,Willowdale South,43.76816500000007,-79.40741984599998,Symposium Cafe Restaurant & Lounge,537befcc498edb1da559269b,43.77107544003332,-79.41339624610163,Breakfast Spot
642,Willowdale South,43.76816500000007,-79.40741984599998,Burrito Place,51795105498e74dbd890c160,43.781257794964446,-79.41580077815041,Burrito Place
643,Willowdale South,43.76816500000007,-79.40741984599998,Shawarma Max,4bb628fbef159c74e18075f7,43.76601170897119,-79.41084443679077,Middle Eastern Restaurant
644,Willowdale South,43.76816500000007,-79.40741984599998,Wimpy's Diner,4c796e0581bca0939d66fd14,43.76397143768718,-79.39886788029243,Diner
647,Willowdale South,43.76816500000007,-79.40741984599998,Aroma Espresso Bar,505a03d8e4b09e8b72852f20,43.76855041240926,-79.38650185841739,Café
650,Willowdale South,43.76816500000007,-79.40741984599998,Wendy's,4b832e14f964a5200dfc30e3,43.76846127243853,-79.4123771060805,Fast Food Restaurant
653,Willowdale South,43.76816500000007,-79.40741984599998,Toronto a la Cart - Korean,4be4ab88910020a19614d214,43.78056324457225,-79.41580061252955,Food Stand
655,Willowdale South,43.76816500000007,-79.40741984599998,Lim Ga Ne 임가네,4bbfdb854cdfc9b6d0199221,43.778352684061865,-79.41500008106232,Korean Restaurant
656,Willowdale South,43.76816500000007,-79.40741984599998,Eggsmart,518e6e63498e3a08c7918afc,43.758922,-79.41001,Breakfast Spot
660,Willowdale South,43.76816500000007,-79.40741984599998,Oliva,59aad7839be5225c7b0af43b,43.758343,-79.40988,Coffee Shop
661,Willowdale South,43.76816500000007,-79.40741984599998,Booster Juice,4d275804849f3704c02f6841,43.78109225,-79.41666875,Juice Bar
666,Willowdale South,43.76816500000007,-79.40741984599998,Finch Station Hot Dog Stand,4d31363f72a8b1f79e0992d0,43.78220254687473,-79.41547751426697,Hot Dog Joint
667,Willowdale South,43.76816500000007,-79.40741984599998,Thai Express,553a7413498e754de33cc778,43.780178,-79.416408,Thai Restaurant
671,Willowdale South,43.76816500000007,-79.40741984599998,Kayagum 가야금,4f3ae177e4b0a9ee4bcd617c,43.777977,-79.41528,Korean Restaurant
673,Willowdale South,43.76816500000007,-79.40741984599998,Cafe Palma,4c9771a094a0236afc15a712,43.765994572126374,-79.41080699049581,Café
674,Willowdale South,43.76816500000007,-79.40741984599998,Magic Noodle 大槐树,586db9e28ee560529b394bea,43.77733535211549,-79.41479481709487,Noodle House
675,Willowdale South,43.76816500000007,-79.40741984599998,Druxy's,4bacec3ff964a520021a3be3,43.768453638862155,-79.41303038118947,Deli / Bodega
676,Willowdale South,43.76816500000007,-79.40741984599998,La Prep,4ddac5b818509aa34b40026e,43.76852345566198,-79.4135436351814,Café
679,York Mills West,43.74789500000003,-79.39991893899997,Bobbette & Belle,543a91fb498e12bc6fd44f2e,43.73133877297435,-79.40376944766918,Bakery
680,York Mills West,43.74789500000003,-79.39991893899997,Rabba Fine Foods,4af727f7f964a520870622e3,43.75795227432312,-79.40893623239137,Grocery Store
682,York Mills West,43.74789500000003,-79.39991893899997,Yonge Sushi,4e9f4c2493add232e74d40b1,43.733181795539736,-79.40432284207976,Sushi Restaurant
683,York Mills West,43.74789500000003,-79.39991893899997,Aroma Espresso Bar,529f7dd2498e96adf4bc4e66,43.73119302623775,-79.40367759576215,Café
685,York Mills West,43.74789500000003,-79.39991893899997,The Abbot,4b47b52bf964a520503b26e3,43.73171144972793,-79.40390764757474,Breakfast Spot
687,York Mills West,43.74789500000003,-79.39991893899997,Patisserie Sebastien,4b5b36f8f964a520beeb28e3,43.73080662573705,-79.40382316180315,Bakery
690,York Mills West,43.74789500000003,-79.39991893899997,Hazel's Diner,4b51fd18f964a520a85f27e3,43.73253478307487,-79.40410775579386,Diner
694,York Mills West,43.74789500000003,-79.39991893899997,Wimpy's Diner,4c796e0581bca0939d66fd14,43.76397143768718,-79.39886788029243,Diner
696,York Mills West,43.74789500000003,-79.39991893899997,Eggsmart,518e6e63498e3a08c7918afc,43.758922,-79.41001,Breakfast Spot
699,York Mills West,43.74789500000003,-79.39991893899997,Oliva,59aad7839be5225c7b0af43b,43.758343,-79.40988,Coffee Shop
706,York Mills West,43.74789500000003,-79.39991893899997,Tim Horton's,5683e617498ed21c0b05b39b,43.74455914978267,-79.40440263804643,Coffee Shop
707,York Mills West,43.74789500000003,-79.39991893899997,Druxy's,4ae5cecaf964a52032a221e3,43.74475943330597,-79.4063549948143,Deli / Bodega
709,York Mills West,43.74789500000003,-79.39991893899997,York Mills Centre Food Court,4cb08d7039458cfa5eb103a0,43.74463727984939,-79.40650022117964,Food Court
710,York Mills West,43.74789500000003,-79.39991893899997,Marcello's Market and Deli,4b631f62f964a520a8642ae3,43.746355,-79.408277,Restaurant
713,York Mills West,43.74789500000003,-79.39991893899997,Nortown Foods,4b4a4678f964a520e48126e3,43.747296823287364,-79.38504045780961,Butcher
714,York Mills West,43.74789500000003,-79.39991893899997,Nortown Foods,4bd74190f645c9b6968ca5e0,43.74749734819542,-79.38493506310054,Butcher
715,York Mills West,43.74789500000003,-79.39991893899997,Country Style,4f1d5813e4b0889e07316497,43.747103,-79.384689,Coffee Shop
716,York Mills West,43.74789500000003,-79.39991893899997,Pearl City,4c32082f66e40f47a2cec58b,43.75784402532662,-79.4093531004265,Chinese Restaurant
717,York Mills West,43.74789500000003,-79.39991893899997,La Prep,4eab1da28b8180c90bb39207,43.75971885835819,-79.41033152426033,Café
719,York Mills West,43.74789500000003,-79.39991893899997,Golden Rice Noodle,597a921035dfa74bde71382a,43.760041,-79.410784,Noodle House
720,York Mills West,43.74789500000003,-79.39991893899997,Country Style,4ceea945d29b2d43c8ffedbb,43.761194,-79.407925,Coffee Shop
721,York Mills West,43.74789500000003,-79.39991893899997,Cinnamon Grove,4d79abae9d27ba7a29c01042,43.76312348497325,-79.40520842605713,Café
722,York Mills West,43.74789500000003,-79.39991893899997,Delimark Cafe,4cdd8400fc973704e993dc05,43.76304848407226,-79.40624186360066,Café
723,York Mills West,43.74789500000003,-79.39991893899997,Coffee Time,4c13ab787f7f2d7fc06adf68,43.7639002546235,-79.39930991494059,Coffee Shop
724,York Mills West,43.74789500000003,-79.39991893899997,Java Joe's,4bb34a7e4019a59362b737b8,43.76119910538507,-79.41243773866125,Café
725,York Mills West,43.74789500000003,-79.39991893899997,Freshly Squeezed,4bab94f7f964a5200bb63ae3,43.76225105278392,-79.41047993595853,Juice Bar
726,York Mills West,43.74789500000003,-79.39991893899997,Kin-Kin Bakery & Bubble Tea,5b356bd566fc650037058679,43.762483,-79.410261,Bakery
727,York Mills West,43.74789500000003,-79.39991893899997,Druxy's,4bace5cbf964a52018173be3,43.76271164005418,-79.41000721638571,Deli / Bodega
728,Willowdale West,43.77769500000005,-79.44579657299994,Kiva's Bagel Bakery & Restaurant,4b5b2842f964a52048e728e3,43.79163316033195,-79.44789150157098,Bagel Shop
729,Willowdale West,43.77769500000005,-79.44579657299994,Tov-Li,4b352657f964a520c42a25e3,43.78421369713337,-79.44609771646198,Pizza Place
731,Willowdale West,43.77769500000005,-79.44579657299994,Canephora Cafe,54d6c069498e7fc0978b112f,43.775768993147175,-79.4342716340182,Coffee Shop
733,Willowdale West,43.77769500000005,-79.44579657299994,What A Bagel,4c5c4cc67735c9b6a6e08b72,43.79480805015848,-79.44606030775367,Bagel Shop
741,Willowdale West,43.77769500000005,-79.44579657299994,Belle Restaurant,50dc9fe2e4b0495c54f1e6b2,43.774325455615156,-79.44265133679542,Eastern European Restaurant
742,Willowdale West,43.77769500000005,-79.44579657299994,Happy Bagel Bakery,4dc2a161d1643ed27a5319e9,43.77400837440994,-79.44269728757808,Bakery
743,Willowdale West,43.77769500000005,-79.44579657299994,Hartman's,4b58e4cdf964a520667128e3,43.78431215202778,-79.44621271750725,Butcher
744,Willowdale West,43.77769500000005,-79.44579657299994,Mizumi Sushi,5179761ae4b0de302ebf0721,43.79176071895086,-79.44471817582652,Asian Restaurant
745,Willowdale West,43.77769500000005,-79.44579657299994,Asahi Sushi,4c79823f97028cfaf768dbfe,43.79293021939768,-79.44655338169753,Sushi Restaurant
746,Willowdale West,43.77769500000005,-79.44579657299994,Country Style,4da432af22a5f04d99dc3255,43.79266339623143,-79.441328341081,Coffee Shop
747,Willowdale West,43.77769500000005,-79.44579657299994,St. Urbain Bagel,4b59f533f964a520bba328e3,43.794059,-79.445947,Bagel Shop
748,Willowdale West,43.77769500000005,-79.44579657299994,Coffee Time,4cd2c3e2df88a35da7bd6aa0,43.77518277600878,-79.4686828592461,Café
749,Willowdale West,43.77769500000005,-79.44579657299994,Druxy's,4b9fbb42f964a5205f3937e3,43.76944260037687,-79.46742489635703,Deli / Bodega
750,Willowdale West,43.77769500000005,-79.44579657299994,Kiki's Grill,4e4c02e5b61c745d8af72f13,43.7691764831543,-79.4677505493164,Food Truck
751,Parkwoods,43.75242000000003,-79.32924245299995,Allwyn's Bakery,4b8991cbf964a520814232e3,43.75984035203157,-79.32471879917513,Caribbean Restaurant
753,Parkwoods,43.75242000000003,-79.32924245299995,Bruno's valu-mart,4bafa285f964a5203a123ce3,43.746143,-79.32463,Grocery Store
754,Parkwoods,43.75242000000003,-79.32924245299995,David Duncan House,4b27a51ef964a5201a8824e3,43.75825858791358,-79.3488857478876,Steakhouse
759,Parkwoods,43.75242000000003,-79.32924245299995,The Bean Sprout,4c9f77980e9bb1f7659bf05f,43.742228835254664,-79.31357696452841,Chinese Restaurant
762,Parkwoods,43.75242000000003,-79.32924245299995,Thai One On,4af0bb68f964a520aade21e3,43.75458309476642,-79.35154293935814,Thai Restaurant
766,Parkwoods,43.75242000000003,-79.32924245299995,Cora Breakfast and Lunch,4e9752bfbe7ba85e57df02ad,43.75449613817272,-79.35140124066076,Breakfast Spot
770,Parkwoods,43.75242000000003,-79.32924245299995,La Notre,4b87107cf964a5207fae31e3,43.76070416249771,-79.32539551954271,Coffee Shop
771,Parkwoods,43.75242000000003,-79.32924245299995,Valley Fields Family Restaurant,4ba4f1bcf964a52083c638e3,43.74145188427135,-79.3196334859321,Breakfast Spot
772,Parkwoods,43.75242000000003,-79.32924245299995,Mr.Sub,4ccb5dc1b5cdbfb79ce885c1,43.752814,-79.314067,Restaurant
773,Parkwoods,43.75242000000003,-79.32924245299995,Timothy's World Coffee,4b1fc74df964a520f82824e3,43.76961,-79.330904,Coffee Shop
774,Parkwoods,43.75242000000003,-79.32924245299995,Tim Hortons / Esso,4bb9ef191261d13a56ffe998,43.740446973170236,-79.32416861639062,Coffee Shop
775,Parkwoods,43.75242000000003,-79.32924245299995,The Sunshine Patio,4dc6fdbad164eb9ca015eee2,43.764607644690656,-79.33610615405992,BBQ Joint
776,Parkwoods,43.75242000000003,-79.32924245299995,Mak euro deli,5026cbdee4b0dd4acc666818,43.740743,-79.320836,Deli / Bodega
777,Parkwoods,43.75242000000003,-79.32924245299995,Postmedia Cafeteria,4d64085f1a83f04d001c7a2b,43.75255721877985,-79.34786928794301,Coffee Shop
778,Parkwoods,43.75242000000003,-79.32924245299995,Katsura Japanese Restaurant 桂,4ad4c061f964a52092f720e3,43.75625865963421,-79.34957097779701,Japanese Restaurant
779,Parkwoods,43.75242000000003,-79.32924245299995,Seasons at The Prince,4ad4c061f964a52091f720e3,43.75692608466137,-79.35060043700595,American Restaurant
780,Parkwoods,43.75242000000003,-79.32924245299995,By The Slice,4beaf872b3352d7f15dc55d2,43.7543990843341,-79.35166093747738,Pizza Place
781,Parkwoods,43.75242000000003,-79.32924245299995,Wimpy's Diner,4bdc564dfed22d7f10b257c9,43.759334850907884,-79.3098316408897,Breakfast Spot
782,Parkwoods,43.75242000000003,-79.32924245299995,Le Cafe Restaurant,4ad4c060f964a5206df720e3,43.76932285995458,-79.32244652326992,French Restaurant
783,Parkwoods,43.75242000000003,-79.32924245299995,Mexican Amigos,52e6823211d2da6d6587d96e,43.75473811533157,-79.35006982629395,Mexican Restaurant
784,Parkwoods,43.75242000000003,-79.32924245299995,IBM Lunch Room,4c5032f31886c9b6627e4828,43.77017313494101,-79.33020680910577,Restaurant
785,Parkwoods,43.75242000000003,-79.32924245299995,Atrium Cafe And Juice Bar,4c069382cf8c76b0b8b43a65,43.77017445789965,-79.33017348621118,Café
787,Don Mills North,43.749055000000055,-79.36222672499997,What a Bagel,4b6b0b5df964a520edee2be3,43.754330081991476,-79.35746465464855,Bagel Shop
788,Don Mills North,43.749055000000055,-79.36222672499997,Booster Juice,4b893311f964a5207a2232e3,43.75376671,-79.35900467,Juice Bar
790,Don Mills North,43.749055000000055,-79.36222672499997,David Duncan House,4b27a51ef964a5201a8824e3,43.75825858791358,-79.3488857478876,Steakhouse
792,Don Mills North,43.749055000000055,-79.36222672499997,McEwan,4b707db4f964a520021e2de3,43.73625640025338,-79.34513152081716,Gourmet Shop
794,Don Mills North,43.749055000000055,-79.36222672499997,Thai One On,4af0bb68f964a520aade21e3,43.75458309476642,-79.35154293935814,Thai Restaurant
795,Don Mills North,43.749055000000055,-79.36222672499997,Windfields Restaurant,4b53cc0cf964a520a3ab27e3,43.75330963411871,-79.3588366714113,Diner
797,Don Mills North,43.749055000000055,-79.36222672499997,Cora Breakfast and Lunch,4e9752bfbe7ba85e57df02ad,43.75449613817272,-79.35140124066076,Breakfast Spot
807,Don Mills North,43.749055000000055,-79.36222672499997,Country Style,4c47806089a6c9b6fb819a88,43.75296220574307,-79.35978073768551,Coffee Shop
808,Don Mills North,43.749055000000055,-79.36222672499997,Rogers Cafeteria,4d8c9179d00a6ea8ebfe8c4f,43.75359359444752,-79.35447333974949,Cafeteria
809,Don Mills North,43.749055000000055,-79.36222672499997,By The Slice,4beaf872b3352d7f15dc55d2,43.7543990843341,-79.35166093747738,Pizza Place
810,Don Mills North,43.749055000000055,-79.36222672499997,Katsura Japanese Restaurant 桂,4ad4c061f964a52092f720e3,43.75625865963421,-79.34957097779701,Japanese Restaurant
811,Don Mills North,43.749055000000055,-79.36222672499997,Chris's Coffee Shop,4cadd92d8c48a09385536f2c,43.757879541150714,-79.35343015742156,Coffee Shop
812,Don Mills North,43.749055000000055,-79.36222672499997,Postmedia Cafeteria,4d64085f1a83f04d001c7a2b,43.75255721877985,-79.34786928794301,Coffee Shop
813,Don Mills North,43.749055000000055,-79.36222672499997,Seasons at The Prince,4ad4c061f964a52091f720e3,43.75692608466137,-79.35060043700595,American Restaurant
814,Don Mills North,43.749055000000055,-79.36222672499997,Mexican Amigos,52e6823211d2da6d6587d96e,43.75473811533157,-79.35006982629395,Mexican Restaurant
816,Don Mills North,43.749055000000055,-79.36222672499997,Country Style,4f1d5813e4b0889e07316497,43.747103,-79.384689,Coffee Shop
817,Don Mills North,43.749055000000055,-79.36222672499997,Nortown Foods,4bd74190f645c9b6968ca5e0,43.74749734819542,-79.38493506310054,Butcher
818,Don Mills North,43.749055000000055,-79.36222672499997,Nortown Foods,4b4a4678f964a520e48126e3,43.747296823287364,-79.38504045780961,Butcher
819,"Flemingdon Park, Don Mills South",43.72142500000007,-79.34345422799998,Aroma Espresso Bar,4e11eea96284edb6badbaa31,43.73439968185306,-79.3452038090861,Café
820,"Flemingdon Park, Don Mills South",43.72142500000007,-79.34345422799998,Starbucks Reserve Bar,5a8743ed1543c734d2840194,43.735764352650975,-79.34415591212019,Coffee Shop
821,"Flemingdon Park, Don Mills South",43.72142500000007,-79.34345422799998,Charmaine Sweets,5640122fcd10bcf28224ede4,43.71271199043255,-79.358389377594,Bakery
823,"Flemingdon Park, Don Mills South",43.72142500000007,-79.34345422799998,Panera Bread,50bfa5c9e4b06e3ca7404ca8,43.7348289,-79.3438876,Bakery
824,"Flemingdon Park, Don Mills South",43.72142500000007,-79.34345422799998,McEwan,4b707db4f964a520021e2de3,43.73625640025338,-79.34513152081716,Gourmet Shop
834,"Flemingdon Park, Don Mills South",43.72142500000007,-79.34345422799998,Sunset Grill,4f805ab5e4b02f457fe39eb2,43.71008051140994,-79.36252937590784,Breakfast Spot
835,"Flemingdon Park, Don Mills South",43.72142500000007,-79.34345422799998,Delimark Cafe,4b4b7b51f964a520749d26e3,43.72753609649164,-79.33954737355866,Coffee Shop
838,"Flemingdon Park, Don Mills South",43.72142500000007,-79.34345422799998,Anthony's Cafe,5179313fe4b04d5991ac3362,43.723686667641005,-79.33670097370272,Café
839,"Flemingdon Park, Don Mills South",43.72142500000007,-79.34345422799998,The Maker Bean Cafe,594925041fa7633e491da717,43.71602565336404,-79.34031436962798,Café
840,"Flemingdon Park, Don Mills South",43.72142500000007,-79.34345422799998,Druxy's,4ba90363f964a52099033ae3,43.722452576926294,-79.3345573665101,Deli / Bodega
841,"Flemingdon Park, Don Mills South",43.72142500000007,-79.34345422799998,Maria's Corner Cafe,4b9fc5fcf964a520523d37e3,43.72090540009802,-79.33233849644765,Café
843,"Flemingdon Park, Don Mills South",43.72142500000007,-79.34345422799998,Delimark Cafe,4bb4e43b86a8d13ab40ddf7f,43.72036965876474,-79.3315187900018,Coffee Shop
844,"Flemingdon Park, Don Mills South",43.72142500000007,-79.34345422799998,Swiss Chalet,4b564423f964a520520828e3,43.707537822614576,-79.34374277950216,Restaurant
846,"Flemingdon Park, Don Mills South",43.72142500000007,-79.34345422799998,The Great Canadian Bagel,4afeb674f964a520063022e3,43.71327461980094,-79.36502672732136,Bagel Shop
848,"Flemingdon Park, Don Mills South",43.72142500000007,-79.34345422799998,Druxy's,4b5ddd46f964a520af7029e3,43.72882898914713,-79.32915639492907,Deli / Bodega
849,"Flemingdon Park, Don Mills South",43.72142500000007,-79.34345422799998,Select Sandwich,4bc76e1614d795211e5f67e9,43.714080841677884,-79.36023689117143,Restaurant
850,"Flemingdon Park, Don Mills South",43.72142500000007,-79.34345422799998,Harvey's,4e1740f114957dc705cb7884,43.710490110936554,-79.35802089380987,Fast Food Restaurant
852,"Flemingdon Park, Don Mills South",43.72142500000007,-79.34345422799998,Kandahar Kabab,5a20351f65cdf8220f0a79f2,43.70525,-79.348625,Middle Eastern Restaurant
854,"Flemingdon Park, Don Mills South",43.72142500000007,-79.34345422799998,Wendy's,4be2fbabd27a20a15fe5905b,43.705116503799566,-79.35059756040579,Fast Food Restaurant
857,"Bathurst Manor, Downsview North, Wilson Heights",43.75787500000007,-79.44868764799998,Bagel Plus,4b65c410f964a52050fe2ae3,43.75539484400371,-79.4406859789969,Restaurant
859,"Bathurst Manor, Downsview North, Wilson Heights",43.75787500000007,-79.44868764799998,Le Montmartre,4c0aec4a009a0f47fc55eabf,43.751218620313146,-79.45744557576515,French Restaurant
860,"Bathurst Manor, Downsview North, Wilson Heights",43.75787500000007,-79.44868764799998,Baba Ganoush Shawarma Restaurant,4ecfcf30490168f8cf151f00,43.75418591073192,-79.46870502547036,Middle Eastern Restaurant
861,"Bathurst Manor, Downsview North, Wilson Heights",43.75787500000007,-79.44868764799998,Sunset Grill,57432806498e70237a355b65,43.759587,-79.465118,Breakfast Spot
863,"Bathurst Manor, Downsview North, Wilson Heights",43.75787500000007,-79.44868764799998,Wimpy's Diner,4bcde48ffb84c9b664c7223e,43.75620987159905,-79.43929448082638,Diner
864,"Bathurst Manor, Downsview North, Wilson Heights",43.75787500000007,-79.44868764799998,Times Square Diner,4b4a37b6f964a520387f26e3,43.75105767114834,-79.45559085392547,American Restaurant
870,"Bathurst Manor, Downsview North, Wilson Heights",43.75787500000007,-79.44868764799998,China Court,4d6ee5fa38a588bfbed306e1,43.75578017077131,-79.43743743256304,Chinese Restaurant
871,"Bathurst Manor, Downsview North, Wilson Heights",43.75787500000007,-79.44868764799998,Country Style,4bd4cfc729eb9c74a67092e1,43.750866,-79.456485,Coffee Shop
873,"Bathurst Manor, Downsview North, Wilson Heights",43.75787500000007,-79.44868764799998,Soup Kettle,4de6ae04d22d73244b8ce5f0,43.7543612755241,-79.46638115860016,Café
874,"Bathurst Manor, Downsview North, Wilson Heights",43.75787500000007,-79.44868764799998,Taka sushi,4e6be415b993061ea8891fa8,43.764952842301625,-79.46766660235534,Japanese Restaurant
875,"Bathurst Manor, Downsview North, Wilson Heights",43.75787500000007,-79.44868764799998,Quiznos,4bae3b56f964a520bc953be3,43.75492992445162,-79.47090613366468,Sandwich Place
876,"Bathurst Manor, Downsview North, Wilson Heights",43.75787500000007,-79.44868764799998,Happy Bagel Bakery,4dc2a161d1643ed27a5319e9,43.77400837440994,-79.44269728757808,Bakery
877,"Bathurst Manor, Downsview North, Wilson Heights",43.75787500000007,-79.44868764799998,Belle Restaurant,50dc9fe2e4b0495c54f1e6b2,43.774325455615156,-79.44265133679542,Eastern European Restaurant
878,"Bathurst Manor, Downsview North, Wilson Heights",43.75787500000007,-79.44868764799998,Druxy's,4b9fbb42f964a5205f3937e3,43.76944260037687,-79.46742489635703,Deli / Bodega
879,"Bathurst Manor, Downsview North, Wilson Heights",43.75787500000007,-79.44868764799998,Kiki's Grill,4e4c02e5b61c745d8af72f13,43.7691764831543,-79.4677505493164,Food Truck
880,"Northwood Park, York University",43.76476500000007,-79.48809440699995,Carribean Heat,4b9fe242f964a520614737e3,43.764155,-79.490227,Caribbean Restaurant
881,"Northwood Park, York University",43.76476500000007,-79.48809440699995,Nino D'Aversa,4c0e848c98102d7fa2cae306,43.75991342959363,-79.48888463299159,Pizza Place
882,"Northwood Park, York University",43.76476500000007,-79.48809440699995,Tim Horton's,566dcc5d498eba8f32f7ffe9,43.75440844942418,-79.48778316378593,Coffee Shop
886,"Northwood Park, York University",43.76476500000007,-79.48809440699995,California Sandwiches,4b535847f964a520529827e3,43.75575092187059,-79.47365289923411,Sandwich Place
887,"Northwood Park, York University",43.76476500000007,-79.48809440699995,Baba Ganoush Shawarma Restaurant,4ecfcf30490168f8cf151f00,43.75418591073192,-79.46870502547036,Middle Eastern Restaurant
889,"Northwood Park, York University",43.76476500000007,-79.48809440699995,Sunset Grill,57432806498e70237a355b65,43.759587,-79.465118,Breakfast Spot
891,"Northwood Park, York University",43.76476500000007,-79.48809440699995,Aroma Espresso Bar,59df4ec59be5225f461d5e1d,43.769918,-79.502217,Coffee Shop
893,"Northwood Park, York University",43.76476500000007,-79.48809440699995,Booster Juice,4b687c3bf964a520767b2be3,43.77333607,-79.50527648,Juice Bar
898,"Northwood Park, York University",43.76476500000007,-79.48809440699995,Tim Hortons (TEL Building),4d4c53407aa6a35d24fcd570,43.77319716897765,-79.50129229632407,Coffee Shop
902,"Northwood Park, York University",43.76476500000007,-79.48809440699995,Falafel Hut,4d77db452b4b6ea89b1c48fe,43.77411253768331,-79.50194570704106,Falafel Restaurant
903,"Northwood Park, York University",43.76476500000007,-79.48809440699995,La Prep,4d7e57f487003704f07c6f99,43.77416813173794,-79.50188876983718,Café
904,"Northwood Park, York University",43.76476500000007,-79.48809440699995,Schulich Executive Dining,4cdc3b02cea2224b451b8a4c,43.772854850551525,-79.49840750862118,American Restaurant
905,"Northwood Park, York University",43.76476500000007,-79.48809440699995,Timothy's World Coffee,4c878e539c808cfa582e151e,43.77276955980532,-79.49880289347168,Coffee Shop
906,"Northwood Park, York University",43.76476500000007,-79.48809440699995,Wendy's,4bbe3b165ce0d13adbd3df57,43.77391,-79.502963,Fast Food Restaurant
907,"Northwood Park, York University",43.76476500000007,-79.48809440699995,Tastes,5012bb7ee4b0260c4153f51e,43.7735544049047,-79.50156504829211,Snack Place
908,"Northwood Park, York University",43.76476500000007,-79.48809440699995,Coffee Time,4c5edc7afff99c74ad1153d3,43.755949822334614,-79.4740880580822,Coffee Shop
909,"Northwood Park, York University",43.76476500000007,-79.48809440699995,Cucinetta,52461b97498eac3236e8f246,43.77420671786005,-79.50154308317525,Italian Restaurant
910,"Northwood Park, York University",43.76476500000007,-79.48809440699995,Berries and Blooms,4c3389cb452620a101c4230f,43.77425345763742,-79.50157478279489,Salad Place
911,"Northwood Park, York University",43.76476500000007,-79.48809440699995,Café Supreme,4b9e6832f964a520f6e036e3,43.77426228673703,-79.50210319200644,Café
912,"Northwood Park, York University",43.76476500000007,-79.48809440699995,Treats,4ba8eb22f964a52010fa39e3,43.773780751638405,-79.50299618073896,Café
913,"Northwood Park, York University",43.76476500000007,-79.48809440699995,Pita Pit,4b9ae914f964a52018e235e3,43.77364311830852,-79.50377220503236,Sandwich Place
914,"Northwood Park, York University",43.76476500000007,-79.48809440699995,Taka sushi,4e6be415b993061ea8891fa8,43.764952842301625,-79.46766660235534,Japanese Restaurant
915,"Northwood Park, York University",43.76476500000007,-79.48809440699995,Kiki's Grill,4e4c02e5b61c745d8af72f13,43.7691764831543,-79.4677505493164,Food Truck
916,"Northwood Park, York University",43.76476500000007,-79.48809440699995,Druxy's,4b9fbb42f964a5205f3937e3,43.76944260037687,-79.46742489635703,Deli / Bodega
917,"Northwood Park, York University",43.76476500000007,-79.48809440699995,Winters Dining Hall,4da27e65d686b60c86c6ba28,43.7765311620469,-79.50240521005054,Cafeteria
918,"Northwood Park, York University",43.76476500000007,-79.48809440699995,Quiznos,4bae3b56f964a520bc953be3,43.75492992445162,-79.47090613366468,Sandwich Place
919,"Northwood Park, York University",43.76476500000007,-79.48809440699995,Great Canadian Bagel,4ba9073ef964a520ea043ae3,43.77428466176202,-79.50139416695019,Bagel Shop
920,"Northwood Park, York University",43.76476500000007,-79.48809440699995,International Delicatessen Foods,4e7753e488775d593ec6d641,43.78178244946315,-79.49024682309673,Food
921,"Northwood Park, York University",43.76476500000007,-79.48809440699995,Coffee Time,4cd2c3e2df88a35da7bd6aa0,43.77518277600878,-79.4686828592461,Café
923,"Northwood Park, York University",43.76476500000007,-79.48809440699995,Sunnyside Grill,594d1e35f2905e40cce5f3aa,43.78219,-79.490491,Breakfast Spot
924,"Northwood Park, York University",43.76476500000007,-79.48809440699995,Big Al's Diner,5004450de4b0a7c213b4c76d,43.78226013426394,-79.49042805752575,Diner
925,"Northwood Park, York University",43.76476500000007,-79.48809440699995,Jay's Cafe & Bar,4ce1680841ed224b5826ea3c,43.78189196630703,-79.49366275707085,Café
926,"Northwood Park, York University",43.76476500000007,-79.48809440699995,Tamam's Shawarma,576d6fec498e6f3e33debac7,43.781986,-79.493996,Mediterranean Restaurant
927,"Northwood Park, York University",43.76476500000007,-79.48809440699995,Central Square Cafeteria,4f2ae606e4b0d4e47df46004,43.77277223342927,-79.50462638480967,Food Court
930,"CFB Toronto, Downsview East",43.73868500000003,-79.46731999999997,Baba Ganoush Shawarma Restaurant,4ecfcf30490168f8cf151f00,43.75418591073192,-79.46870502547036,Middle Eastern Restaurant
931,"CFB Toronto, Downsview East",43.73868500000003,-79.46731999999997,Le Montmartre,4c0aec4a009a0f47fc55eabf,43.751218620313146,-79.45744557576515,French Restaurant
932,"CFB Toronto, Downsview East",43.73868500000003,-79.46731999999997,Peter G's,4bbe916130c99c74170f5411,43.728403670472694,-79.47978851649047,New American Restaurant
933,"CFB Toronto, Downsview East",43.73868500000003,-79.46731999999997,Hung Long,4d39fb9434ee37047185729b,43.72652393180744,-79.48365933802457,Vietnamese Restaurant
934,"CFB Toronto, Downsview East",43.73868500000003,-79.46731999999997,espressamente illy,4fdcca10e4b09473e1965a37,43.72629982857244,-79.45226418913342,Café
935,"CFB Toronto, Downsview East",43.73868500000003,-79.46731999999997,California Sandwiches,4b535847f964a520529827e3,43.75575092187059,-79.47365289923411,Sandwich Place
938,"CFB Toronto, Downsview East",43.73868500000003,-79.46731999999997,Michel's Bakery Café,4b0d8c2ef964a520c84a23e3,43.7250815907643,-79.4533648520256,Bakery
939,"CFB Toronto, Downsview East",43.73868500000003,-79.46731999999997,Times Square Diner,4b4a37b6f964a520387f26e3,43.75105767114834,-79.45559085392547,American Restaurant
948,"CFB Toronto, Downsview East",43.73868500000003,-79.46731999999997,Main Cafeteria (Bombardier),4fac2216e4b0ad9c3f9fccad,43.73793098976079,-79.47114380227413,Food Court
952,"CFB Toronto, Downsview East",43.73868500000003,-79.46731999999997,Coffee time,4b5d9ddcf964a5209e6329e3,43.73187370355043,-79.45920313281803,Coffee Shop
953,"CFB Toronto, Downsview East",43.73868500000003,-79.46731999999997,Jollibee Wilson-Toronto,5d851463f516bc0008cfd53d,43.732707,-79.452155,Fast Food Restaurant
954,"CFB Toronto, Downsview East",43.73868500000003,-79.46731999999997,Country Style,4bd4cfc729eb9c74a67092e1,43.750866,-79.456485,Coffee Shop
955,"CFB Toronto, Downsview East",43.73868500000003,-79.46731999999997,Soup Kettle,4de6ae04d22d73244b8ce5f0,43.7543612755241,-79.46638115860016,Café
956,"CFB Toronto, Downsview East",43.73868500000003,-79.46731999999997,Pho Hoa Binh,4c812f0c47cc224b23b7799f,43.7262294677569,-79.48055300452504,Vietnamese Restaurant
957,"CFB Toronto, Downsview East",43.73868500000003,-79.46731999999997,Best Turkish Kebab,56411676cd10c8b4e52e82a2,43.727140913391274,-79.48242745157282,Turkish Restaurant
958,"CFB Toronto, Downsview East",43.73868500000003,-79.46731999999997,Country Style,4de8ec97d4c0faa5643ae8a6,43.74645518116068,-79.48722173279653,Coffee Shop
959,"CFB Toronto, Downsview East",43.73868500000003,-79.46731999999997,Quiznos,4bae3b56f964a520bc953be3,43.75492992445162,-79.47090613366468,Sandwich Place
960,"CFB Toronto, Downsview East",43.73868500000003,-79.46731999999997,IQ Food Co Yorkdale,5c1fc897835c9a002cae78a3,43.724646,-79.455247,Salad Place
962,"CFB Toronto, Downsview East",43.73868500000003,-79.46731999999997,Ebar,5810feea38faaa3930f3aa05,43.725678,-79.452175,Café
963,"CFB Toronto, Downsview East",43.73868500000003,-79.46731999999997,Villa Madina Mediterranean Cuisine,4bcf3caccaff95212bc3ccf0,43.725399933164084,-79.45174011282953,Mediterranean Restaurant
964,"CFB Toronto, Downsview East",43.73868500000003,-79.46731999999997,Coffee Time,4c5edc7afff99c74ad1153d3,43.755949822334614,-79.4740880580822,Coffee Shop
965,Downsview West,43.720140111000035,-79.51697999999999,Mi Pho Song Vu,4c7dc845d461a1430f677ef5,43.718643435521535,-79.50765266000782,Vietnamese Restaurant
968,Downsview West,43.720140111000035,-79.51697999999999,7-Eleven,4c61e61a86b6be9a2fea8a34,43.72042005938399,-79.5137364696609,Convenience Store
970,Downsview West,43.720140111000035,-79.51697999999999,Jolly II Italian Restaurant,4b199b46f964a5205be023e3,43.711946052767104,-79.53150957322656,Italian Restaurant
974,Downsview West,43.720140111000035,-79.51697999999999,Tung Hing Bakery,4e7fc7a6d5fb5d8041542766,43.71972205631869,-79.51294898986816,Bakery
976,Downsview West,43.720140111000035,-79.51697999999999,Fiera Foods,4e96e515cc21310d905e01c1,43.71894579794069,-79.5259211134858,Bakery
977,Downsview West,43.720140111000035,-79.51697999999999,Cao Van,4cc8b49c786e46884dc88f09,43.724114,-79.50895,Vietnamese Restaurant
978,Downsview West,43.720140111000035,-79.51697999999999,Sunrise Caribbean Restaurant,4bddff406198c9b6c18b12ff,43.71560170468236,-79.50685848757865,Caribbean Restaurant
979,Downsview West,43.720140111000035,-79.51697999999999,Sunset Grill,4f80438ce4b00084da20c9e3,43.71141217519934,-79.53512997355709,Breakfast Spot
981,Downsview West,43.720140111000035,-79.51697999999999,Buddha Chay,588cecb17a8f042236f00192,43.70627,-79.50479,Vietnamese Restaurant
982,Downsview West,43.720140111000035,-79.51697999999999,Caldense Bakery & Pastries,4b64c3aff964a52056ce2ae3,43.71163265222902,-79.53257985374606,Bakery
983,Downsview Central,43.73369000000008,-79.49674024199999,Hung Long,4d39fb9434ee37047185729b,43.72652393180744,-79.48365933802457,Vietnamese Restaurant
984,Downsview Central,43.73369000000008,-79.49674024199999,Peter G's,4bbe916130c99c74170f5411,43.728403670472694,-79.47978851649047,New American Restaurant
985,Downsview Central,43.73369000000008,-79.49674024199999,Mi Pho Song Vu,4c7dc845d461a1430f677ef5,43.718643435521535,-79.50765266000782,Vietnamese Restaurant
995,Downsview Central,43.73369000000008,-79.49674024199999,Best Turkish Kebab,56411676cd10c8b4e52e82a2,43.727140913391274,-79.48242745157282,Turkish Restaurant
996,Downsview Central,43.73369000000008,-79.49674024199999,Cao Van,4cc8b49c786e46884dc88f09,43.724114,-79.50895,Vietnamese Restaurant
997,Downsview Central,43.73369000000008,-79.49674024199999,Country Style,4e792f82aeb79f7dab59555b,43.73986,-79.51333,Coffee Shop
998,Downsview Central,43.73369000000008,-79.49674024199999,Pho Hoa Binh,4c812f0c47cc224b23b7799f,43.7262294677569,-79.48055300452504,Vietnamese Restaurant
1000,Downsview Central,43.73369000000008,-79.49674024199999,Country Style,4de8ec97d4c0faa5643ae8a6,43.74645518116068,-79.48722173279653,Coffee Shop
1001,Downsview Northwest,43.75537065200007,-79.51958999999994,Commisso Bakery,4b4981b3f964a520ad7026e3,43.748678,-79.51726151,Tea Room
1009,Downsview Northwest,43.75537065200007,-79.51958999999994,Pita Land,4f298aebe4b015f8e4c4e8e7,43.757520253440326,-79.51462786652858,Falafel Restaurant
1010,Downsview Northwest,43.75537065200007,-79.51958999999994,Perkins,4c1d51b0b4e62d7fc997dc93,43.75656747323858,-79.52747471772624,American Restaurant
1012,Downsview Northwest,43.75537065200007,-79.51958999999994,Mac's Convenience Store,4f5bb679e4b05eaca40ffdd6,43.76933566288619,-79.52110641923016,Snack Place
1013,Downsview Northwest,43.75537065200007,-79.51958999999994,Saggio Eatery,4f75e0a0e4b0678850e28391,43.761580469390346,-79.54005080080982,Italian Restaurant
1014,Downsview Northwest,43.75537065200007,-79.51958999999994,Country Style,4e792f82aeb79f7dab59555b,43.73986,-79.51333,Coffee Shop
1015,Downsview Northwest,43.75537065200007,-79.51958999999994,Uptown Churrasqueira BBQ,4df1119efa76042fed7158bd,43.753662,-79.54268996770948,Portuguese Restaurant
1017,Downsview Northwest,43.75537065200007,-79.51958999999994,Tenren's Tea Time,4d9bb1c9c18aa35d17d473ff,43.74867056537947,-79.54219147141178,Tea Room
1020,Victoria Village,43.73060024600005,-79.31326499999994,Peek Freans Cookie Outlet,4c69a3588e7c0f47e629e00f,43.71326033174486,-79.30806318602713,Bakery
1021,Victoria Village,43.73060024600005,-79.31326499999994,The Bean Sprout,4c9f77980e9bb1f7659bf05f,43.742228835254664,-79.31357696452841,Chinese Restaurant
1025,Victoria Village,43.73060024600005,-79.31326499999994,Bruno's valu-mart,4bafa285f964a5203a123ce3,43.746143,-79.32463,Grocery Store
1026,Victoria Village,43.73060024600005,-79.31326499999994,Portugril,4f3ecce6e4b0587016b6f30d,43.72581876267242,-79.31278541470671,Portuguese Restaurant
1035,Victoria Village,43.73060024600005,-79.31326499999994,The Frig,4d689350b6f46dcb77ee15b2,43.72705130603407,-79.31741760908679,French Restaurant
1039,Victoria Village,43.73060024600005,-79.31326499999994,The Prince - Shisha Lounge,4c3a64cd3849c928d3f3c2b1,43.736602724746405,-79.30781173902841,Middle Eastern Restaurant
1040,Victoria Village,43.73060024600005,-79.31326499999994,Bamboo Garden,4e456c11c65bd6ffbe83a106,43.73596810935831,-79.30623638143747,Chinese Restaurant
1041,Victoria Village,43.73060024600005,-79.31326499999994,K C McFlys,4d9581ed2bd6f04d250a2050,43.73598654734451,-79.30620886692107,Wings Joint
1042,Victoria Village,43.73060024600005,-79.31326499999994,Valley Fields Family Restaurant,4ba4f1bcf964a52083c638e3,43.74145188427135,-79.3196334859321,Breakfast Spot
1043,Victoria Village,43.73060024600005,-79.31326499999994,Country Style,51bf10a4498ed21d675407a3,43.72648,-79.29978,Coffee Shop
1045,Victoria Village,43.73060024600005,-79.31326499999994,Druxy's,4b5ddd46f964a520af7029e3,43.72882898914713,-79.32915639492907,Deli / Bodega
1046,Victoria Village,43.73060024600005,-79.31326499999994,Tim Hortons / Esso,4bb9ef191261d13a56ffe998,43.740446973170236,-79.32416861639062,Coffee Shop
1049,Victoria Village,43.73060024600005,-79.31326499999994,Dine.TO,4bb632022f70c9b67b078530,43.71463856518455,-79.31554900448066,Office
1050,Victoria Village,43.73060024600005,-79.31326499999994,La Famliglia,4e07c0f27d8b2a01805cf1e2,43.715112479048344,-79.30536141584285,Italian Restaurant
1051,Victoria Village,43.73060024600005,-79.31326499999994,Delimark Cafe,4bb4e43b86a8d13ab40ddf7f,43.72036965876474,-79.3315187900018,Coffee Shop
1052,Victoria Village,43.73060024600005,-79.31326499999994,Maria's Corner Cafe,4b9fc5fcf964a520523d37e3,43.72090540009802,-79.33233849644765,Café
1053,Victoria Village,43.73060024600005,-79.31326499999994,Druxy's,4ba90363f964a52099033ae3,43.722452576926294,-79.3345573665101,Deli / Bodega
1054,Victoria Village,43.73060024600005,-79.31326499999994,BeanWise (formerly Cultured Coffee Bean),540b37d7498e634754b1db46,43.71324905334155,-79.30785208267649,Coffee Shop
1055,"Woodbine Gardens, Parkview Hill",43.707535000000064,-79.31177329699995,Peek Freans Cookie Outlet,4c69a3588e7c0f47e629e00f,43.71326033174486,-79.30806318602713,Bakery
1056,"Woodbine Gardens, Parkview Hill",43.707535000000064,-79.31177329699995,Gingerman Restaurant,4bd847e709ecb713146d487c,43.707844,-79.29558,Restaurant
1057,"Woodbine Gardens, Parkview Hill",43.707535000000064,-79.31177329699995,Mon K Patisserie,51b0bcb6498e4f0309a58a65,43.696922,-79.32952,Pastry Shop
1059,"Woodbine Gardens, Parkview Hill",43.707535000000064,-79.31177329699995,Ital Vital Rastarant,53729c0a498e019260644870,43.71721649169922,-79.29380798339844,Vegetarian / Vegan Restaurant
1063,"Woodbine Gardens, Parkview Hill",43.707535000000064,-79.31177329699995,Harvey's,4b7055c3f964a52086132de3,43.70813627814792,-79.3141045886623,Fast Food Restaurant
1064,"Woodbine Gardens, Parkview Hill",43.707535000000064,-79.31177329699995,Nostalgia,50b63ac8e4b03158df08777b,43.706832771917064,-79.31178314223835,Café
1065,"Woodbine Gardens, Parkview Hill",43.707535000000064,-79.31177329699995,Rise & Dine Eatery,590e0fbfd8096e608dcc8fd4,43.705769,-79.311638,Breakfast Spot
1068,"Woodbine Gardens, Parkview Hill",43.707535000000064,-79.31177329699995,Mondelez,4bd32953b221c9b6a1ffd8d0,43.71326405563084,-79.30985171831507,Bakery
1069,"Woodbine Gardens, Parkview Hill",43.707535000000064,-79.31177329699995,BeanWise (formerly Cultured Coffee Bean),540b37d7498e634754b1db46,43.71324905334155,-79.30785208267649,Coffee Shop
1070,"Woodbine Gardens, Parkview Hill",43.707535000000064,-79.31177329699995,Dine.TO,4bb632022f70c9b67b078530,43.71463856518455,-79.31554900448066,Office
1071,"Woodbine Gardens, Parkview Hill",43.707535000000064,-79.31177329699995,La Famliglia,4e07c0f27d8b2a01805cf1e2,43.715112479048344,-79.30536141584285,Italian Restaurant
1072,"Woodbine Gardens, Parkview Hill",43.707535000000064,-79.31177329699995,Duffy's Drive-In Restaurant,4b0d2faef964a5206e4423e3,43.70221178731397,-79.29680943350886,Burger Joint
1073,"Woodbine Gardens, Parkview Hill",43.707535000000064,-79.31177329699995,JJ Bean,571e75c0498ead458f6df160,43.720229,-79.313561,Café
1074,"Woodbine Gardens, Parkview Hill",43.707535000000064,-79.31177329699995,Thai Wok,4c841690d92ea0930d355a72,43.692789,-79.315951,Asian Restaurant
1075,"Woodbine Gardens, Parkview Hill",43.707535000000064,-79.31177329699995,Kouzina,4c0119b7cf3aa593b06eccb0,43.69740702366666,-79.32917515993438,Breakfast Spot
1076,"Woodbine Gardens, Parkview Hill",43.707535000000064,-79.31177329699995,Tim Hortons / Esso,4bede7f14daaa59377718f61,43.6974754523648,-79.3290553987026,Coffee Shop
1077,Woodbine Heights,43.689640000000054,-79.30687387799998,Hollandaise Diner,566c2656498e9a9ccc484ba7,43.68652710817421,-79.3088972568512,Breakfast Spot
1078,Woodbine Heights,43.689640000000054,-79.30687387799998,Royal Beef,4ae5cbf7f964a52017a221e3,43.685325126021965,-79.31498171235116,Butcher
1079,Woodbine Heights,43.689640000000054,-79.30687387799998,Bodega Henriette,58375c0214250b703b480d06,43.67807709328078,-79.3148675051117,Café
1081,Woodbine Heights,43.689640000000054,-79.30687387799998,Beaches Bake Shop,4c0e40c0c700c9b6e185a3dd,43.68036312619922,-79.28969173416124,Bakery
1082,Woodbine Heights,43.689640000000054,-79.30687387799998,Red Rocket Coffee,4f0f11fbe4b035449917e927,43.68234009057258,-79.3285298526357,Café
1084,Woodbine Heights,43.689640000000054,-79.30687387799998,City Betty,5aeeffcfcf72a0002c937ed8,43.6824,-79.32873,American Restaurant
1085,Woodbine Heights,43.689640000000054,-79.30687387799998,Celena's Bakery,4b6d9cd0f964a5203d802ce3,43.685392752671284,-79.31416165735217,Bakery
1086,Woodbine Heights,43.689640000000054,-79.30687387799998,Pomarosa Coffee & Kitchen,59bb20b679f6c73b6546cb4f,43.683201,-79.325849,Coffee Shop
1087,Woodbine Heights,43.689640000000054,-79.30687387799998,Grinder,4ad8d41df964a520121521e3,43.68307273557906,-79.2998748093593,Coffee Shop
1088,Woodbine Heights,43.689640000000054,-79.30687387799998,Basil Thai Kitchen,4b203218f964a520852e24e3,43.68456259154853,-79.30736206544368,Thai Restaurant
1089,Woodbine Heights,43.689640000000054,-79.30687387799998,Mon K Patisserie,51b0bcb6498e4f0309a58a65,43.696922,-79.32952,Pastry Shop
1090,Woodbine Heights,43.689640000000054,-79.30687387799998,Patisserie La Cigogne,4d8e5df3c1b1721eeafa2e46,43.68251423565178,-79.3270197375558,Dessert Shop
1091,Woodbine Heights,43.689640000000054,-79.30687387799998,Zav Coffee Shop & Gallery,59735a7aff030653f79455e4,43.68551803991472,-79.31387285041357,Coffee Shop
1092,Woodbine Heights,43.689640000000054,-79.30687387799998,Last Drop Cafe,4adb7a7df964a520f02721e3,43.688829532311495,-79.32600210968185,Coffee Shop
